[{"lat": -35.259316, "lng": 173.3896236, "type": "Grocery Store", "name": "Broadwood Store", "address": "1099 Awaroa Rd, Broadwood 0491, New Zealand"}, {"lat": -35.1157513, "lng": 173.2652462, "type": "Bottle Store", "name": "Cactus Liquor Kaitaia", "address": "15 Commerce St, Kaitaia 0410, New Zealand"}, {"lat": -35.309732, "lng": 174.101983, "type": "Tavern", "name": "Roadrunner Tavern", "address": "Opua Paihia Main Road, SH11, Opua 0200, New Zealand"}, {"lat": -34.8148878, "lng": 173.1176695, "type": "Grocery Store", "name": "Houhora Wharf Store & Lotto", "address": "Far N Rd, Houhora 0484, New Zealand"}, {"lat": -35.2822876, "lng": 174.0911854, "type": "Supermarket", "name": "Countdown Paihia Central", "address": "6 Williams Rd, Paihia 0200, New Zealand"}, {"lat": -35.3936784, "lng": 173.5052794, "type": "Hotel", "name": "Masonic Hotel", "address": "8 Parnell St, Rawene 0473, New Zealand"}, {"lat": -35.0245766, "lng": 173.2292141, "type": "Hotel", "name": "Waipapakauri Hotel", "address": "1108 Far N Rd, Waipapakauri 0486, New Zealand"}, {"lat": -35.04837970000001, "lng": 173.2569285, "type": "Grocery Store", "name": "Awanui Superette", "address": "101 State Highway 1, Awanui, Kaitaia 0451, New Zealand"}, {"lat": -35.407366, "lng": 173.800207, "type": "Grocery Store", "name": "Kaikohe Four Square", "address": "120, Broadway, Kaikohe 0405, New Zealand"}, {"lat": -35.179952, "lng": 173.907475, "type": "Wine Maker", "name": "Kapiro Vineyard", "address": "2374 State Highway 10, Waipapa 0295, New Zealand"}, {"lat": -35.265872, "lng": 173.2108493, "type": "Tavern", "name": "Herekino Tavern", "address": "Herekino 0481, New Zealand"}, {"lat": -35.1905923, "lng": 173.9143323, "type": "Wine Maker", "name": "Kainui Road Vineyard", "address": "15 Conifer Ln, Kerikeri 0294, New Zealand"}, {"lat": -35.2114692, "lng": 173.9186605, "type": "Bottle Store", "name": "Liquor World Waipapa", "address": "Klinac Ln, Waipapa 0295, New Zealand"}, {"lat": -35.099424, "lng": 173.258556, "type": "Supermarket", "name": "Pak'N Save Kaitaia", "address": "111 North Rd, Kaitaia 0482, New Zealand"}, {"lat": -35.3801925, "lng": 174.0656159, "type": "Grocery Store", "name": "Kawakawa Four Square", "address": "71 Gillies St, Kawakawa 0210, New Zealand"}, {"lat": -35.2558411, "lng": 173.9265414, "type": "Wine Maker", "name": "Marsden Estate", "address": "56 Wiroa Rd, Kerikeri 0293, New Zealand"}, {"lat": -35.0441151, "lng": 173.9011603, "type": "Complimentary", "name": "Matauri Bay General Store", "address": "2 Tapui Rd, Matauri Bay, RD1 Kaeo 0478, New Zealand"}, {"lat": -35.2653593, "lng": 173.9423965, "type": "Wine Maker", "name": "Cottle Hill Winery", "address": "28 Cottle Hill Dr, Kerikeri 0245, New Zealand"}, {"lat": -35.5047407, "lng": 173.3920079, "type": "Hotel", "name": "Opononi Hotel", "address": "19 State Highway 12, Opononi 0473, New Zealand"}, {"lat": -35.397552, "lng": 173.3839073, "type": "Tavern", "name": "Panguru Tavern", "address": "W Coast Rd, Panguru 0492, New Zealand"}, {"lat": -35.283272, "lng": 174.181771, "type": "Wine Maker", "name": "Paroa Bay Winery", "address": "31 Otamarua Rd, Russell 0272, New Zealand"}, {"lat": -34.7957095, "lng": 173.1029712, "type": "Bottle Store", "name": "Houhora Liquor Centre", "address": "Houhora 0484, New Zealand"}, {"lat": -35.1759793, "lng": 173.193659, "type": "Wine Maker", "name": "Waitapu Estate Vineyard", "address": "111 Masters Access Rd, Kaitaia 0441, New Zealand"}, {"lat": -35.387537, "lng": 174.014443, "type": "Grocery Store", "name": "Blue Lagoon Four Square", "address": "64 George St, Moerewa 0211, New Zealand"}, {"lat": -35.19884, "lng": 173.9786563, "type": "Mail Order", "name": "Villa Italia", "address": "37 Kingfisher Dr, Kerikeri 0294, New Zealand"}, {"lat": -35.5367477, "lng": 173.3861922, "type": "Grocery Store", "name": "Omapere Foodmart", "address": "342 State Highway 12, Omapere 0444, New Zealand"}, {"lat": -35.3872358, "lng": 174.0149645, "type": "Tavern", "name": "Klondike Tavern", "address": "68 Main Rd, Moerewa 0211, New Zealand"}, {"lat": -35.3799876, "lng": 174.068482, "type": "Tavern", "name": "Klondike Ale House", "address": "5 Gillies St, Kawakawa 0210, New Zealand"}, {"lat": -35.2847717, "lng": 174.0957169, "type": "Bottle Store", "name": "Bay Liquor", "address": "14 Marsden Rd, Paihia 0200, New Zealand"}, {"lat": -35.2847717, "lng": 174.0957169, "type": "Bottle Store", "name": "Super Liquor Paihia", "address": "14 Marsden Rd, Paihia 0200, New Zealand"}, {"lat": -40.9211995, "lng": 175.002468, "type": "Bottle Store", "name": "Liquor King", "address": "Corner Of Ihakara Street And State Highway 1, Paraparaumu 5032, New Zealand"}, {"lat": -35.226776, "lng": 173.949607, "type": "Bottle Store", "name": "Super Liquor Kerikeri", "address": "Meridian Building 3/93 Kerikeri Rd, Kerikeri 0230, New Zealand"}, {"lat": -35.1426714, "lng": 173.247438, "type": "Wine Maker", "name": "Okahu Estate Winery", "address": "R.D., 1/520 Okahu Rd, Kaitaia 0481, New Zealand"}, {"lat": -35.206653, "lng": 173.917389, "type": "Bottle Store", "name": "Liquorland Waipapa", "address": "10 State Hwy, Waipapa 0295, New Zealand"}, {"lat": -35.261159, "lng": 174.121301, "type": "Hotel", "name": "Duke Of Marlborough", "address": "35 The Strand, Russell 0202, New Zealand"}, {"lat": -35.1130832, "lng": 173.265561, "type": "Chartered Club", "name": "Far North Kaitaia Rsa", "address": "12 Matthews Ave, Kaitaia 0481, New Zealand"}, {"lat": -35.287439, "lng": 174.095754, "type": "Hotel", "name": "Scenic Hotel Bay Of Islands Hotel", "address": "58 Seaview Rd, Paihia 0200, New Zealand"}, {"lat": -34.9899674, "lng": 173.5367007, "type": "Hotel", "name": "Mangonui Hotel", "address": "Waterfront Dr, Mangonui 0420, New Zealand"}, {"lat": -35.26198900000001, "lng": 174.121598, "type": "Grocery Store", "name": "Russell Four Square", "address": "27 The Strand, Russell 0202, New Zealand"}, {"lat": -35.262266, "lng": 174.122526, "type": "Bottle Store", "name": "Colonial Liquor Centre", "address": "15C York St, Russell 0202, New Zealand"}, {"lat": -35.2614272, "lng": 174.1224659, "type": "Tavern", "name": "Duke Of Marlborough Tavern", "address": "York St, Russell 0202, New Zealand"}, {"lat": -34.9893344, "lng": 173.5366823, "type": "Grocery Store", "name": "Mangonui Four Square", "address": "Beach Road Waterfront Drive Dx Box: Ax 10032,Northland, Mangonui 0420, New Zealand"}, {"lat": -35.4055258, "lng": 173.8037256, "type": "Bottle Store", "name": "Liquorland Kaikohe", "address": "42 Broadway, Kaikohe 0405, New Zealand"}, {"lat": -35.248866, "lng": 173.910635, "type": "Wine Maker", "name": "Ake Ake Vineyard", "address": "165 Waimate N Rd, Kerikeri 0293, New Zealand"}, {"lat": -35.2626969, "lng": 174.1226634, "type": "Grocery Store", "name": "Bay Four Square", "address": "9/11 York St, Russell 0202, New Zealand"}, {"lat": -35.2334835, "lng": 173.9043407, "type": "Wine Maker", "name": "Fat Pig Vineyard", "address": "505 Kerikeri Rd, Kerikeri 0293, New Zealand"}, {"lat": -34.814812, "lng": 173.117926, "type": "Supermarket", "name": "Houhora Four Square", "address": "Far N Rd, Pukenui 0484, New Zealand"}, {"lat": -34.862191, "lng": 173.389813, "type": "Hotel", "name": "Karikari Estate", "address": "1001 Matai Bay Rd, Kaitaia 1001, New Zealand"}, {"lat": -41.2918748, "lng": 174.78745, "type": "Hotel", "name": "Copthorne Hotel & Resort Bay Of Islands", "address": "100 Oriental Parade, Oriental Bay, Wellington 6011, New Zealand"}, {"lat": -35.2266995, "lng": 173.951368, "type": "Supermarket", "name": "New World Kerikeri", "address": "99 Kerikeri Rd, Kerikeri 0230, New Zealand"}, {"lat": -35.1148139, "lng": 173.2645705, "type": "Grocery Store", "name": "Kaitaia Food Market", "address": "65 Commerce St, Kaitaia 0410, New Zealand"}, {"lat": -35.2271296, "lng": 173.9489518, "type": "Tavern", "name": "Fishbone Cafe Limited", "address": "88 Kerikeri Rd, Kerikeri 0230, New Zealand"}, {"lat": -35.2794098, "lng": 174.0813427, "type": "Supermarket", "name": "Countdown Paihia", "address": "9 Puketona Rd, Paihia 0200, New Zealand"}, {"lat": -35.22932, "lng": 173.946844, "type": "Supermarket", "name": "Countdown Kerikeri", "address": "Cnr Butler & Kerikeri Rds, Kerikeri 0230, New Zealand"}, {"lat": -35.2114692, "lng": 173.9186605, "type": "Bottle Store", "name": "Liquor World Waipapa", "address": "Klinac Ln, Waipapa 0295, New Zealand"}, {"lat": -35.493906, "lng": 174.1370824, "type": "Tavern", "name": "Towai Tavern", "address": "3827 State Highway 1, Towai 0182, New Zealand"}, {"lat": -35.0409051, "lng": 173.7148787, "type": "Tavern", "name": "Historic Gumstore Bar & Grill", "address": "250 Totara N Rd, Totara North 0479, New Zealand"}, {"lat": -35.2594264, "lng": 173.3896773, "type": "Grocery Store", "name": "Broadwood General Store", "address": "1099 Broadwood Rd, Broadwood 0491, New Zealand"}, {"lat": -35.3925564, "lng": 173.5053437, "type": "Grocery Store", "name": "Rawene Food Mart", "address": "2 Clendon Esplanade, Rawene 0473, New Zealand"}, {"lat": -35.4085745, "lng": 173.8000345, "type": "Bottle Store", "name": "The Shed Liquor Centre", "address": "9 Marino Pl, Kaikohe 0405, New Zealand"}, {"lat": -35.379903, "lng": 174.0658795, "type": "Tavern", "name": "The Hunter Star", "address": "84 Gillies St, Kawakawa 0210, New Zealand"}, {"lat": -35.2816105, "lng": 174.0905506, "type": "Bottle Store", "name": "Bay Liquor", "address": "26 Selwyn Rd, Paihia 0200, New Zealand"}, {"lat": -35.3123885, "lng": 174.121369, "type": "Grocery Store", "name": "Opua General Store", "address": "1 Beechy St, Opua 0200, New Zealand"}, {"lat": -35.1710436, "lng": 173.15337, "type": "Bottle Store", "name": "Ahipara Liquor Store", "address": "4 Takahe St, Kaitaia 0481, New Zealand"}, {"lat": -35.0441172, "lng": 173.9013576, "type": "Restaurant", "name": "Matauri Cafe & Bar", "address": "2 Tapui Road, Matauri Bay 0182, New Zealand"}, {"lat": -34.9926065, "lng": 173.5097923, "type": "Bottle Store", "name": "Thirsty Liquor", "address": "172 State Highway 10, Coopers Beach, Northland 0420, New Zealand"}, {"lat": -34.9955331, "lng": 173.465913, "type": "Tavern", "name": "Taipa Tavern", "address": "4/22 Taipa Point Rd, Taipa 0420, New Zealand"}, {"lat": -34.5176521, "lng": 172.8396861, "type": "Tourist House", "name": "Waitiki Tourist Complex", "address": "Waitiki Tourist Complex 9047 Far N Rd, Te Hapua 0484, New Zealand"}, {"lat": -35.352004, "lng": 173.881618, "type": "Hotel", "name": "Ohaeawai Hotel", "address": "6083 State Highway 12, Ohaeawai, Kaikohe 0472, New Zealand"}, {"lat": -35.2824827, "lng": 174.0905424, "type": "Grocery Store", "name": "Paihia Four Square", "address": "41 Williams Rd, Paihia 0200, New Zealand"}, {"lat": -34.992193, "lng": 173.509489, "type": "Grocery Store", "name": "Coopers Beach Four Square", "address": "9 Coopers Dr, Coopers Beach 0420, New Zealand"}, {"lat": -35.0245766, "lng": 173.2292141, "type": "Hotel", "name": "Waipapakauri Hotel", "address": "1108 Far N Rd, Waipapakauri 0486, New Zealand"}, {"lat": -35.2298868, "lng": 173.9465709, "type": "Bottle Store", "name": "Liquorland Kerikeri", "address": "52 Kerikeri Rd, Kerikeri 0230, New Zealand"}, {"lat": -35.100613, "lng": 173.78059, "type": "Grocery Store", "name": "Kaeo Four Square", "address": "Leigh St, Kaeo 0478, New Zealand"}, {"lat": -34.99625950000001, "lng": 173.4659028, "type": "Grocery Store", "name": "Taipa Foodmarket", "address": "5 Oruru Rd, Taipa 0483, New Zealand"}, {"lat": -38.9443145, "lng": 174.5283539, "type": "Other", "name": "Society Liquor", "address": "Uruti, New Zealand"}, {"lat": -35.408951, "lng": 173.801012, "type": "Supermarket", "name": "Kaikohe New World", "address": "Marino Pl, Kaikohe 0405, New Zealand"}, {"lat": -35.3603352, "lng": 173.544088, "type": "Hotel", "name": "Hokianga Harbour Hotel", "address": "Beach Rd, Kohukohu 0491, New Zealand"}, {"lat": -35.5367477, "lng": 173.3861922, "type": "Grocery Store", "name": "Omapere Foodmart", "address": "342 State Highway 12, Omapere 0444, New Zealand"}, {"lat": -35.5560053, "lng": 173.4759187, "type": "Grocery Store", "name": "Waimamaku Four Square", "address": "7233, State Highway 12, Waimamaku 0473, New Zealand"}, {"lat": -35.715114, "lng": 174.3224532, "type": "Bottle Store", "name": "Cactus Liquor", "address": "2 Manse St, Regent, Whangarei 0112, New Zealand"}, {"lat": -35.7286522, "lng": 174.3152136, "type": "Bottle Store", "name": "Whangarei Liquor Centre", "address": "28 Maunu Rd, Avenues, Whangarei 0110, New Zealand"}, {"lat": -35.6805501, "lng": 174.3016646, "type": "Chartered Club", "name": "Kamo Club", "address": "Meldrum St, Kamo, Whangarei 0112, New Zealand"}, {"lat": -35.7090802, "lng": 174.3204868, "type": "Tavern", "name": "Kensington Tavern", "address": "3 Kensington Ave, Kensington, Whangarei 0112, New Zealand"}, {"lat": -35.8780061, "lng": 174.4361886, "type": "Bottle Store", "name": "Marsden Highway Liquor Store", "address": "1/163 State Highway 15A, Ruakaka 0171, New Zealand"}, {"lat": -35.731024, "lng": 174.311583, "type": "Bottle Store", "name": "Liquor King Whangarei", "address": "51/53 Maunu Rd, Woodhill, Whangarei 0110, New Zealand"}, {"lat": -35.380145, "lng": 174.341933, "type": "Location", "name": "Oakura Bay Stores", "address": "Whangaruru Beachfront Camp & Motel Ohawini Rd, Oakura 4314, New Zealand"}, {"lat": -35.821119, "lng": 174.508938, "type": "Chartered Club", "name": "Mount Manaia Club", "address": "Whangarei Heads Road, RD4, Whangarei 0174, New Zealand"}, {"lat": -35.7557374, "lng": 174.3679371, "type": "Supermarket", "name": "Onerahi New World", "address": "128 Onerahi Rd, Onerahi, Whangarei 0110, New Zealand"}, {"lat": -35.8254539, "lng": 174.4587928, "type": "Grocery Store", "name": "One Tree Point Store", "address": "178 One Tree Point Rd, One Tree Point 0118, New Zealand"}, {"lat": -35.8742097, "lng": 174.4556189, "type": "Supermarket", "name": "Ruakaka Fresh Choice", "address": "378 Marsden Point Rd, Ruakaka 0116, New Zealand"}, {"lat": -35.984384, "lng": 174.445088, "type": "Supermarket", "name": "Waipu Four Square", "address": "43 The Centre, Waipu 0510, New Zealand"}, {"lat": -35.5951146, "lng": 174.5358416, "type": "Wine Maker", "name": "Sailfish Cove Wines Ltd", "address": "218 N Gable Way, Tutukaka, Whangarei 0173, New Zealand"}, {"lat": -35.7395208, "lng": 174.2827148, "type": "Grocery Store", "name": "Tui Crescent Foodmarket", "address": "1 Tui Cres, Maunu, Whangarei 0110, New Zealand"}, {"lat": -35.6836934, "lng": 174.3215786, "type": "Bottle Store", "name": "Liquorland Tikipunga", "address": "1 Wanaka St, Tikipunga, Whangarei 0112, New Zealand"}, {"lat": -35.7260427, "lng": 174.3247263, "type": "Supermarket", "name": "Pak N Save", "address": "Walton St, Whangarei, 0110, New Zealand"}, {"lat": -35.7237647, "lng": 174.3171461, "type": "Chartered Club", "name": "Whangarei Returned Services Association", "address": "9 Rust Ave, Northland 0140, New Zealand"}, {"lat": -35.6103853, "lng": 174.5243604, "type": "Grocery Store", "name": "Tutukaka General Store", "address": "260 Matapouri Rd, Tutukaka 0173, New Zealand"}, {"lat": -35.6871195, "lng": 174.3267112, "type": "Bottle Store", "name": "Cactus Liquor Tikipunga", "address": "159 Kiripaka Rd, Tikipunga, Whangarei 0112, New Zealand"}, {"lat": -35.772377, "lng": 174.3092892, "type": "Wine Maker", "name": "Longview Estate", "address": "Otaika 0178, New Zealand"}, {"lat": -35.772377, "lng": 174.3092892, "type": "Mail Order", "name": "Longview Estate", "address": "Otaika 0178, New Zealand"}, {"lat": -35.7540407, "lng": 174.3678113, "type": "Bottle Store", "name": "Onerahi Super Liquor", "address": "1 Old Onerahi Rd, Onerahi, Whangarei 0110, New Zealand"}, {"lat": -35.708867, "lng": 174.320541, "type": "Bottle Store", "name": "Kensington Liquorland", "address": "3/5 Kensington Ave, Kensington, Whangarei 0112, New Zealand"}, {"lat": -35.7344611, "lng": 174.3051843, "type": "Grocery Store", "name": "Fosters Foodmarket", "address": "121 Maunu Rd, Raumanga, Whangarei 0110, New Zealand"}, {"lat": -35.7693281, "lng": 174.48078, "type": "Grocery Store", "name": "Parua Bay 4 Square", "address": "1387 Whangarei Heads Rd, Parua Bay 0174, New Zealand"}, {"lat": -35.7263467, "lng": 174.3193432, "type": "Hotel", "name": "Grand Hotel", "address": "2 Bank Street, Whangarei 0110, New Zealand"}, {"lat": -35.7541592, "lng": 174.3676454, "type": "Tavern", "name": "Onerahi Tavern", "address": "Corner Of Waverley Street & Onerahi Road, Onerahi, 0110, New Zealand"}, {"lat": -35.9846799, "lng": 174.4463375, "type": "Bottle Store", "name": "Thirsty Liquor Waipu", "address": "15 The Centre, Waipu 0510, New Zealand"}, {"lat": -35.725001, "lng": 174.3247667, "type": "Bottle Store", "name": "Whangarei Central Liquorland", "address": "132 Dent St, Whangarei, 0110, New Zealand"}, {"lat": -35.743151, "lng": 174.3076084, "type": "Grocery Store", "name": "Otaika Four Square", "address": "110 Otaika Rd, Northland, Whangarei 0110, New Zealand"}, {"lat": -35.725971, "lng": 174.3195406, "type": "Other", "name": "Shakas Market", "address": "8 Vine St, Vinetown, Whangarei 0110, New Zealand"}, {"lat": -35.715114, "lng": 174.3224532, "type": "Bottle Store", "name": "Cactus Liquor Regent", "address": "2 Manse St, Regent, Whangarei 0112, New Zealand"}, {"lat": -35.6836934, "lng": 174.3215786, "type": "Bottle Store", "name": "Liquorland Tikipunga", "address": "1 Wanaka St, Tikipunga, Whangarei 0112, New Zealand"}, {"lat": -35.9854807, "lng": 174.4473694, "type": "Hotel", "name": "Waipu Hotel", "address": "4 South Rd, Waipu 0510, New Zealand"}, {"lat": -35.984384, "lng": 174.445088, "type": "Supermarket", "name": "Waipu Four Square", "address": "43 The Centre, Waipu 0510, New Zealand"}, {"lat": -35.6816038, "lng": 174.2878444, "type": "Mail Order", "name": "Box N Co", "address": "Dip Rd, Kamo, Whangarei, New Zealand"}, {"lat": -35.743259, "lng": 174.307549, "type": "Bottle Store", "name": "Otaika Liquorland", "address": "Shop 7, Otaika Shopping Centre, Otaika Rd, Whangarei 0110, New Zealand"}, {"lat": -35.682778, "lng": 174.2995495, "type": "Bottle Store", "name": "Super Liquor Kamo", "address": "4 Three Mile Bush Road, Kamo, Whangarei 0112, New Zealand"}, {"lat": -40.87590489999999, "lng": 175.0658968, "type": "Bottle Store", "name": "The Bottle O  Whangarei", "address": "78 Main Rd, Waikanae 5036, New Zealand"}, {"lat": -35.5656726, "lng": 174.5036361, "type": "Location", "name": "Matapouri Bay Store", "address": "952 Matapouri Road, Matapouri 0173, New Zealand"}, {"lat": -36.029322, "lng": 174.5058157, "type": "Grocery Store", "name": "Waipu Cove General Store", "address": "893 Cove Rd, Waipu 0582, New Zealand"}, {"lat": -35.8926944, "lng": 174.4338945, "type": "Complimentary", "name": "Bream Bay Superette", "address": "2618 State Highway 1, Ruakaka 0171, New Zealand"}, {"lat": -35.684849, "lng": 174.301466, "type": "Bottle Store", "name": "Kamo Liquorland", "address": "477 Kamo Rd, Kamo, Whangarei 0112, New Zealand"}, {"lat": -35.683795, "lng": 174.300886, "type": "Grocery Store", "name": "Kamo Four Square", "address": "509 Kamo Rd, Kamo, Whangarei 0112, New Zealand"}, {"lat": -35.6867034, "lng": 174.3266848, "type": "Grocery Store", "name": "Tikipunga Food Market", "address": "169 Kiripaka Rd, Tikipunga, Whangarei 0112, New Zealand"}, {"lat": -35.743151, "lng": 174.3076084, "type": "Grocery Store", "name": "Otaika Four Square", "address": "110 Otaika Rd, Northland, Whangarei 0110, New Zealand"}, {"lat": -35.7691088, "lng": 174.4803374, "type": "Bottle Store", "name": "The Bottle-O Parua Bay", "address": "1360 Whangarei Heads Rd, Parua Bay 0174, New Zealand"}, {"lat": -35.985014, "lng": 174.447828, "type": "Restaurant", "name": "Mcleod'S Pizza Barn", "address": "2 Cove Rd, Waipu 0510, New Zealand"}, {"lat": -35.9065878, "lng": 174.455064, "type": "Grocery Store", "name": "Oasis Store", "address": "21 Bream Bay Dr, Ruakaka 0116, New Zealand"}, {"lat": -35.8725672, "lng": 174.4563574, "type": "Bottle Store", "name": "Ruakaka Liquor Centre", "address": "328 Marsden Point Rd, Ruakaka 0116, New Zealand"}, {"lat": -35.7260427, "lng": 174.3247263, "type": "Supermarket", "name": "Pak N Save", "address": "Walton St, Whangarei, 0110, New Zealand"}, {"lat": -35.9847314, "lng": 174.4471371, "type": "Mail Order", "name": "Three French Vines", "address": "Waipu, New Zealand"}, {"lat": -35.737381, "lng": 174.130665, "type": "Tavern", "name": "Poroti Tavern", "address": "Poroti Tavern 752 Mangakahia Road, Poroti 0179, New Zealand"}, {"lat": -35.983435, "lng": 174.4486361, "type": "Chartered Club", "name": "Waipu Citizens & Services Club", "address": "18 Nova Scotia Dr, Waipu 0510, New Zealand"}, {"lat": -35.7557374, "lng": 174.3679371, "type": "Supermarket", "name": "New World Onerahi", "address": "128 Onerahi Rd, Onerahi, Whangarei 0110, New Zealand"}, {"lat": -35.5138028, "lng": 174.454275, "type": "Grocery Store", "name": "Whananaki Beach Store", "address": "2162 Whananaki N Rd, Whananaki 0181, New Zealand"}, {"lat": -36.1261415, "lng": 174.5732675, "type": "Complimentary", "name": "Bennetts Of Mangawhai", "address": "52 Moir St, Mangawhai 0505, New Zealand"}, {"lat": -36.09714, "lng": 174.528272, "type": "Wine Maker", "name": "Lochiel Estate-Vineyard-Winery And B&B", "address": "60 Brook Ln, Mangawhai Northland 0573, New Zealand"}, {"lat": -36.1012565, "lng": 174.23311, "type": "Grocery Store", "name": "Paparoa Store", "address": "2024 Paparoa Valley Road, Paparoa 0571, New Zealand"}, {"lat": -36.1357901, "lng": 174.0247944, "type": "Grocery Store", "name": "Ruawai Four Square", "address": "15 Freyberg Rd, Ruawai 0530, New Zealand"}, {"lat": -35.9405896, "lng": 173.8709015, "type": "Grocery Store", "name": "Dargaville Four Square", "address": "111 Victoria St, Dargaville 0310, New Zealand"}, {"lat": -36.1266824, "lng": 174.5729136, "type": "Tavern", "name": "Windermere Gardens", "address": "Moir St, Mangawhai, New Zealand"}, {"lat": -36.1112552, "lng": 174.352073, "type": "Grocery Store", "name": "Maungaturoto Four Square", "address": "163 Hurndall St, West, Maungaturoto 0520, New Zealand"}, {"lat": -36.09034949999999, "lng": 174.5334279, "type": "Wine Maker", "name": "Estuary Vineyard", "address": "381 King Rd, Mangawhai 0573, New Zealand"}, {"lat": -36.0950502, "lng": 174.587269, "type": "Bottle Store", "name": "Village Liquor", "address": "10 Wood St, Mangawhai 0505, New Zealand"}, {"lat": -36.0950502, "lng": 174.587269, "type": "Bottle Store", "name": "Super Liquor Mangawhai", "address": "10 Wood St, Mangawhai 0505, New Zealand"}, {"lat": -35.9416572, "lng": 173.8698269, "type": "Bottle Store", "name": "Empire Liquor Centre Wines And Spirits", "address": "81 Victoria St, Dargaville 0310, New Zealand"}, {"lat": -36.094984, "lng": 174.586835, "type": "Grocery Store", "name": "Molesworth Four Square", "address": "3 Wood St, Mangawhai 0505, New Zealand"}, {"lat": -36.1099434, "lng": 174.3540084, "type": "Bottle Store", "name": "Maungaturoto Liquor Centre", "address": "147 Hurndall St, Maungautoto 0520, New Zealand"}, {"lat": -36.01456599999999, "lng": 173.902371, "type": "Hotel", "name": "Aratapu Tavern", "address": "701 Pouto Rd, Aratapu 0371, New Zealand"}, {"lat": -36.1647523, "lng": 174.4429727, "type": "Bottle Store", "name": "Kaiwaka Liquor Centre", "address": "1925 State Highway 1, Kaiwaka 0573, New Zealand"}, {"lat": -36.1626805, "lng": 174.4441986, "type": "Restaurant", "name": "Three Furlongs Bar & Grill", "address": "1942 State Highway 1, Kaiwaka 8252, New Zealand"}, {"lat": -35.8317035, "lng": 173.7437496, "type": "Tavern", "name": "Kaihu Tavern", "address": "State Highway 12, Kaihu 0373, New Zealand"}, {"lat": -17.75049, "lng": 177.45598, "type": "Tavern", "name": "Absolutely Fab Tokatoka Bar/Cafe", "address": "Nadi, Fiji"}, {"lat": -36.1357901, "lng": 174.0247944, "type": "Supermarket", "name": "Four Square Ruawai", "address": "15 Freyberg Rd, Ruawai 0530, New Zealand"}, {"lat": -39.507621, "lng": 176.881633, "type": "Grocery Store", "name": "Pirimai Food Market", "address": "140 Taradale Rd, Pirimai, Napier 4112, New Zealand"}, {"lat": -36.160781, "lng": 174.444137, "type": "Grocery Store", "name": "Jacques Superstore", "address": "1 Kaiwaka-Mangawhai Rd, Northland, Kaiwaka 0975, New Zealand"}, {"lat": -35.9420658, "lng": 173.8693153, "type": "Bottle Store", "name": "Northern Wairoa Wholesalers", "address": "Northern Wairoa Hotel, 70 Victoria St, Dargaville 0310, New Zealand"}, {"lat": -35.9396, "lng": 173.871105, "type": "Bottle Store", "name": "Independent Brands", "address": "1 Parore St, Dargaville, 0310, New Zealand"}, {"lat": -36.0978044, "lng": 174.5325693, "type": "Wine Maker", "name": "Millars Vineyard ", "address": "26 Bush Ln, Mangawhai 0573, New Zealand"}, {"lat": -36.0890702, "lng": 174.5339839, "type": "Wine Maker", "name": "Te Whai Bay Wines", "address": "367 King Rd, Mangawhai 0573, New Zealand"}, {"lat": -36.1028965, "lng": 174.2326564, "type": "Hotel", "name": "Paparoa Hotel", "address": "2039 Paparoa Valley Rd, Paparoa 0571, New Zealand"}, {"lat": -36.12622169999999, "lng": 174.5749323, "type": "Grocery Store", "name": "Mangawhai Four Square", "address": "43 Moir St, Mangawhai 0505, New Zealand"}, {"lat": -36.1616941, "lng": 174.4433107, "type": "Complimentary", "name": "Kaiwaka Cheese Shop", "address": "1957 State Highway 1, Kaiwaka 0542, New Zealand"}, {"lat": -36.8574928, "lng": 174.7577658, "type": "Bottle Store", "name": "303 K Rd Liquor Centre", "address": "303 Karangahape Rd, Auckland, 1010, New Zealand"}, {"lat": -36.8574928, "lng": 174.7577658, "type": "Bottle Store", "name": "Beach Road Liquor Centre", "address": "303 Karangahape Rd, Auckland, 1010, New Zealand"}, {"lat": -36.9124977, "lng": 174.8260339, "type": "Bottle Store", "name": "Mt Wellington Liquor Spot", "address": "1B Melton Rd, Mount Wellington, Auckland 1060, New Zealand"}, {"lat": -36.9865843, "lng": 174.8803362, "type": "Bottle Store", "name": "Liquorland Manukau", "address": "4 615/613 Great South Rd, Manukau, Auckland 2104, New Zealand"}, {"lat": -36.8579993, "lng": 174.7818614, "type": "Bottle Store", "name": "Accent On Wine", "address": "347 Parnell Rd, Parnell, Auckland 1052, New Zealand"}, {"lat": -36.914308, "lng": 174.8195354, "type": "Auctioneer Endorsed", "name": "All About Auctions", "address": "643 Great South Road, Penrose, Auckland, Penrose, Auckland 1642, New Zealand"}, {"lat": -36.4010791, "lng": 174.6620818, "type": "Bottle Store", "name": "Kowhai Liquor Centre", "address": "22 Whitaker Rd, Warkworth 0910, New Zealand"}, {"lat": -36.900994, "lng": 174.891607, "type": "Grocery Store", "name": "Whiteacres Superette", "address": "31 Whiteacres Dr, Pakuranga, Auckland 2010, New Zealand"}, {"lat": -36.8793596, "lng": 174.8561154, "type": "Bottle Store", "name": "Thirsty Liquor Line Road", "address": "165 Line Rd, Glen Innes, Auckland 1072, New Zealand"}, {"lat": -36.7924765, "lng": 174.7010769, "type": "Bottle Store", "name": "Levesque Liquor", "address": "2 Levesque St, Beach Haven, Auckland 0626, New Zealand"}, {"lat": -36.8918098, "lng": 174.7745237, "type": "Bottle Store", "name": "Bottle 'O' Epsom", "address": "395 Manukau Rd, Epsom, Auckland 1023, New Zealand"}, {"lat": -36.8790707, "lng": 174.6021921, "type": "Wine Maker", "name": "Babich Wines", "address": "15 Babich Rd, Henderson Valley, Auckland 0612, New Zealand"}, {"lat": -36.8660057, "lng": 174.8514006, "type": "Bottle Store", "name": "St Heliers Bay Wine & Spirits", "address": "287C St Heliers Bay Rd, St Heliers, Auckland 1071, New Zealand"}, {"lat": -36.882722, "lng": 174.999051, "type": "Supermarket", "name": "4 Square Supermarket", "address": "53 Third View Ave, Beachlands, Auckland 2018, New Zealand"}, {"lat": -36.9926757, "lng": 175.0372839, "type": "Grocery Store", "name": "Clevedon Superette", "address": "16 Papakura-Clevedon Rd, Clevedon, Auckland 2585, New Zealand"}, {"lat": -36.2899311, "lng": 174.5228467, "type": "Grocery Store", "name": "Biltong Plus", "address": "273 Rodney St, Wellsford, Auckland 0900, New Zealand"}, {"lat": -36.7873247, "lng": 174.5831422, "type": "Grocery Store", "name": "Boric Food Market", "address": "1404 Coatesville-Riverhead Hwy, Auckland 0892, New Zealand"}, {"lat": -36.877586, "lng": 174.779091, "type": "Complimentary", "name": "Boxit The Art Of Giving", "address": "1 Ngaire Ave, Epsom, Auckland 1051, New Zealand"}, {"lat": -36.8783371, "lng": 174.7525617, "type": "Mail Order", "name": "Buzz A Basket", "address": "25 Kenyon Ave, Mount Eden, Auckland 1024, New Zealand"}, {"lat": -36.969551, "lng": 174.797421, "type": "Bottle Store", "name": "Mangere Discount Liquor", "address": "44 Orly Ave, Mangere, Auckland 2159, New Zealand"}, {"lat": -36.293655, "lng": 174.524118, "type": "Bottle Store", "name": "Super Liquor Wellsford", "address": "184 Rodney St, Wellsford 0900, New Zealand"}, {"lat": -37.0633753, "lng": 174.9413585, "type": "Bottle Store", "name": "Papakura Liquor", "address": "22 East St, Papakura, 2110, New Zealand"}, {"lat": -36.8612327, "lng": 174.7492225, "type": "Bottle Store", "name": "Caro'S Wines", "address": "14 Mackelvie St, Grey Lynn, Auckland 1021, New Zealand"}, {"lat": -36.8509927, "lng": 174.7820516, "type": "Bottle Store", "name": "Caro'S Wines", "address": "114 St Georges Bay Rd, Parnell, 1052, New Zealand"}, {"lat": -36.8924531, "lng": 174.736536, "type": "Bottle Store", "name": "Sandringham Liquor Centre", "address": "588 Sandringham Rd, Sandringham, Auckland 1025, New Zealand"}, {"lat": -36.9004173, "lng": 174.7204533, "type": "Bottle Store", "name": "Thristy Liquor", "address": "210 Stoddard Rd, Mount Roskill, Auckland 1041, New Zealand"}, {"lat": -36.694877, "lng": 174.750652, "type": "Supermarket", "name": "B K 'S Four Square", "address": "1058 Beach Rd, Torbay, Auckland 0630, New Zealand"}, {"lat": -36.7490595, "lng": 174.7004094, "type": "Mail Order", "name": "Chrisco", "address": "William Pickering Dr, Rosedale, Auckland 0632, New Zealand"}, {"lat": -36.7159615, "lng": 174.7472869, "type": "Supermarket", "name": "New World Browns Bay", "address": "2 Inverness Rd, Browns Bay, Auckland 0630, New Zealand"}, {"lat": -36.2425973, "lng": 175.4616352, "type": "Grocery Store", "name": "Claris Store 2000", "address": "129 Hector Sanderson Rd, Great Barrier Island, Auckland 0961, New Zealand"}, {"lat": -36.7748379, "lng": 174.5379794, "type": "Wine Maker", "name": "Nobilo Winery", "address": "45 Station Rd, Huapai, Kumeu 0810, New Zealand"}, {"lat": -36.7448869, "lng": 174.7019333, "type": "Complimentary", "name": "The Gift Barn", "address": "6 Airborne Rd, Albany, Auckland 0632, New Zealand"}, {"lat": -36.421761, "lng": 174.8358702, "type": "Tavern", "name": "Kawau Island Yacht Club", "address": "Kawau Island 0920, New Zealand"}, {"lat": -36.845526, "lng": 174.7739471, "type": "Bottle Store", "name": "Liquor Park", "address": "2 Dockside Ln, Auckland, 1010, New Zealand"}, {"lat": -37.250789, "lng": 174.727809, "type": "Bottle Store", "name": "Waiuku Green Bottle", "address": "7 Leonard St, Waiuku 2123, New Zealand"}, {"lat": -36.922947, "lng": 174.7861481, "type": "Bottle Store", "name": "Thirsty Liquor Onehunga", "address": "103 Church St, Onehunga, Auckland 1061, New Zealand"}, {"lat": -36.618095, "lng": 174.676902, "type": "Bottle Store", "name": "Silverdale Liquor", "address": "11 Silverdale St, Stanmore Bay, Silverdale 0932, New Zealand"}, {"lat": -41.2198516, "lng": 174.9155507, "type": "Bottle Store", "name": "Dave & Maureen'S Liquorland Waiuku", "address": "18 Trafalgar St, Waiwhetu, Wellington 5010, New Zealand"}, {"lat": -36.8866432, "lng": 174.6582961, "type": "Mail Order", "name": "Delegat'S Wine Estate", "address": "172 Hepburn Rd, Glendene, Auckland 0602, New Zealand"}, {"lat": -36.9120586, "lng": 174.9298593, "type": "Bottle Store", "name": "Sommerville Liquor Centre", "address": "113L/ Meadowland Drive, Somerville, Auckland 2014, New Zealand"}, {"lat": -36.9570726, "lng": 174.803742, "type": "Bottle Store", "name": "Star Liquor", "address": "167 Hall Ave, Mangere, Auckland 2024, New Zealand"}, {"lat": -36.8812302, "lng": 174.8995871, "type": "Supermarket", "name": "Fresh Choice Half Moon Bay", "address": "1 Ara-Tai Rd, Half Moon Bay, Auckland 2012, New Zealand"}, {"lat": -36.8808077, "lng": 174.8114336, "type": "Bottle Store", "name": "Upland Liquor Spot", "address": "541 Remuera Rd, Remuera, Auckland 1050, New Zealand"}, {"lat": -36.893134, "lng": 174.797921, "type": "Tavern", "name": "The Abbey Bar & Kitchen", "address": "510 Great South Rd, Greenlane, Auckland 1062, New Zealand"}, {"lat": -36.988217, "lng": 174.7907165, "type": "Other", "name": "Eurovintage Ltd", "address": "34 Verissimo Dr, Mangere, Auckland 2022, New Zealand"}, {"lat": -36.8938318, "lng": 174.7749188, "type": "Grocery Store", "name": "Farro Fresh Epsom", "address": "240 Green Ln W, Epsom, Auckland 1023, New Zealand"}, {"lat": -36.8760181, "lng": 174.8271918, "type": "Grocery Store", "name": "Federal Merchants & Co", "address": "33 St Johns Rd, Meadowbank, Auckland 1072, New Zealand"}, {"lat": -37.2479443, "lng": 174.7339909, "type": "Bottle Store", "name": "Mainstreet Cellars", "address": "Waiuku 2123, New Zealand"}, {"lat": -36.84335799999999, "lng": 174.7632994, "type": "Tavern", "name": "The Fox", "address": "85/87 Customs St W, Auckland, 1010, New Zealand"}, {"lat": -36.77284119999999, "lng": 174.7654445, "type": "Bottle Store", "name": "Frog In A Barrel", "address": "172 Kitchener Rd, Auckland 0620, New Zealand"}, {"lat": -36.944741, "lng": 174.964306, "type": "Restaurant", "name": "Prenzel Of Whitford", "address": "7 Whitford Wharf Rd, Whitford, Auckland 2571, New Zealand"}, {"lat": -36.748192, "lng": 174.733395, "type": "Bottle Store", "name": "Total Liquor Shop", "address": "35A Constellation Drive, Rosedale, Auckland 0632, New Zealand"}, {"lat": -36.906711, "lng": 174.68705, "type": "Bottle Store", "name": "Lynnmall Cellars Wine Shop", "address": "Shop 117, LynnMall, 3060 Great North Rd, New Lynn, West Auckland 0600, New Zealand"}, {"lat": -36.899374, "lng": 174.908266, "type": "Supermarket", "name": "Countdown Highland Park", "address": "507 Pakuranga Rd, Highland Park, Auckland 2023, New Zealand"}, {"lat": -36.8763872, "lng": 174.7522252, "type": "Supermarket", "name": "Countdown Mt Eden", "address": "118-120 Valley Rd, Mount Eden, Auckland 1024, New Zealand"}, {"lat": -36.876715, "lng": 174.7509293, "type": "Bottle Store", "name": "Glengarry Wines - Dominion Road", "address": "250 Dominion Rd, Mount Eden, Auckland 1024, New Zealand"}, {"lat": -36.8553699, "lng": 174.74645, "type": "Bottle Store", "name": "Glengarry Ponsonby", "address": "139 Ponsonby Rd, Ponsonby, Auckland 1011, New Zealand"}, {"lat": -36.897768, "lng": 174.8087038, "type": "Bottle Store", "name": "Glengarry Ellerslie", "address": "87 Main Hwy, Ellerslie, Auckland 1051, New Zealand"}, {"lat": -36.8489055, "lng": 174.757129, "type": "Bottle Store", "name": "Glengarry Victoria Park", "address": "118 Wellesley St West, Auckland, 1010, New Zealand"}, {"lat": -36.866965, "lng": 174.774376, "type": "Bottle Store", "name": "Glengarry Khyber Pass", "address": "409 Khyber Pass Rd, Newmarket, Auckland 1023, New Zealand"}, {"lat": -36.8750492, "lng": 174.7851091, "type": "Bottle Store", "name": "Glengarry Bassett Road", "address": "154 Remuera Rd, Remuera, Auckland 1050, New Zealand"}, {"lat": -36.84642669999999, "lng": 174.7423384, "type": "Bottle Store", "name": "Glengarry Jervois Road", "address": "54 Jervois Rd, Ponsonby, Auckland 1011, New Zealand"}, {"lat": -36.8806837, "lng": 174.7987719, "type": "Bottle Store", "name": "Glengarry Remuera", "address": "400 Remuera Rd, Remuera, Auckland 1050, New Zealand"}, {"lat": -36.8538766, "lng": 174.779731, "type": "Bottle Store", "name": "Glengarry Parnell", "address": "164 Parnell Rd, Parnell, Auckland 1052, New Zealand"}, {"lat": -36.8718521, "lng": 174.7460118, "type": "Bottle Store", "name": "Glengarry Kingsland", "address": "420 New North Rd, Kingsland, Auckland 1021, New Zealand"}, {"lat": -36.85889710000001, "lng": 174.7481993, "type": "Bottle Store", "name": "Glengarry Grey Lynn", "address": "16 Williamson Ave, Grey Lynn, Auckland 1021, New Zealand"}, {"lat": -36.85417630000001, "lng": 174.7180963, "type": "Bottle Store", "name": "Glengarry Westmere", "address": "164 Garnet Rd, Westmere, Auckland 1022, New Zealand"}, {"lat": -36.8306179, "lng": 174.7969061, "type": "Bottle Store", "name": "Glengarry Davenport", "address": "Clarence St, Devonport, Auckland 0624, New Zealand"}, {"lat": -36.7829274, "lng": 174.773639, "type": "Bottle Store", "name": "Glengarry Takapuna", "address": "182 Hurstmere Rd, Takapuna, Auckland 0622, New Zealand"}, {"lat": -36.9020879, "lng": 174.9045335, "type": "Bottle Store", "name": "The Bottle O Meadowlands", "address": "14, 29 Aviemore Dr, Highland Park, Auckland 2010, New Zealand"}, {"lat": -36.8452657, "lng": 174.7645636, "type": "Other", "name": "Grace Road Vineyard", "address": "9D/17 Albert St, Auckland, 1010, New Zealand"}, {"lat": -36.881316, "lng": 174.761878, "type": "Bottle Store", "name": "Mt Eden Wines & Spirits", "address": "417 Mount Eden Rd, Mount Eden, Auckland 1024, New Zealand"}, {"lat": -36.7468491, "lng": 174.6937092, "type": "Bottle Store", "name": "Thirsty Liquor Albany", "address": "327 Albany Hwy, Albany, Auckland 0632, New Zealand"}, {"lat": -36.866132, "lng": 174.75818, "type": "Bottle Store", "name": "Eden Terrace Liquor", "address": "70 New North Rd, Eden Terrace, Auckland 1021, New Zealand"}, {"lat": -37.0472365, "lng": 174.9102314, "type": "Bottle Store", "name": "Bottle-O-Conifer", "address": "68 Walter Strevens Dr, Conifer Grove, Takanini 2112, New Zealand"}, {"lat": -36.8706927, "lng": 174.7610463, "type": "Complimentary", "name": "Hg Trading Ltd", "address": "90 Mount Eden Rd, Mount Eden, Auckland 1024, New Zealand"}, {"lat": -41.281887, "lng": 174.777879, "type": "Grocery Store", "name": "Fresh & Save", "address": "109 Featherston St, Wellington, 6011, New Zealand"}, {"lat": -36.37660899999999, "lng": 174.706824, "type": "Wine Maker", "name": "Heron'S Flight Winery", "address": "49 Sharp Rd, Matakana 0982, New Zealand"}, {"lat": -36.7756775, "lng": 174.6698386, "type": "Bottle Store", "name": "Greenhithe Liquor", "address": "6 Greenhithe Rd, Greenhithe, Auckland 0632, New Zealand"}, {"lat": -36.8800958, "lng": 174.8121508, "type": "Bottle Store", "name": "Bacchus Upland Village", "address": "618 Remuera Rd, Remuera, Auckland 1050, New Zealand"}, {"lat": -36.9077396, "lng": 174.6976662, "type": "Bottle Store", "name": "Hopscotch Liquor Ltd", "address": "57a Wolverton St, Avondale, Auckland 0600, New Zealand"}, {"lat": -36.9104783, "lng": 174.7748191, "type": "Supermarket", "name": "Pak 'N Save Royal Oak", "address": "691 Manukau Rd, Auckland 1023, New Zealand"}, {"lat": -37.0639895, "lng": 174.9453819, "type": "Bottle Store", "name": "Wilson Place Liquor", "address": "2/12-14 Railway St W, Papakura, 2110, New Zealand"}, {"lat": -36.98648850000001, "lng": 174.8727319, "type": "Bottle Store", "name": "Papatoetoe Liquor Spot", "address": "25/16 Lambie Dr, Papatoetoe, Auckland 2104, New Zealand"}, {"lat": -36.29397180000001, "lng": 174.5239093, "type": "Bottle Store", "name": "", "address": "Wellsford, New Zealand"}, {"lat": -36.8992084, "lng": 174.8446813, "type": "Bottle Store", "name": "Thirsy Liquor Mount Wellington", "address": "2/46 Mount Wellington Hwy, Mount Wellington, Auckland 1060, New Zealand"}, {"lat": -36.2943721, "lng": 174.5236095, "type": "Grocery Store", "name": "Rodney Four Square", "address": "155 Rodney St, Wellsford 0900, New Zealand"}, {"lat": -36.37121339999999, "lng": 174.6953254, "type": "Wine Maker", "name": "Hawks Nest", "address": "646 Matakana Rd, Laly Haddon Place, Warkworth 0985, New Zealand"}, {"lat": -36.8489015, "lng": 174.7742803, "type": "Bottle Store", "name": "Cheers Liquor", "address": "131 Beach Rd, Auckland, 1010, New Zealand"}, {"lat": -36.9592264, "lng": 175.2431886, "type": "Grocery Store", "name": "Orere Point Store", "address": "4 Orere Point Rd, Orere Point, 2585, New Zealand"}, {"lat": -36.3497863, "lng": 174.7602805, "type": "Bottle Store", "name": "Jones Road Cider", "address": "107 Jones Rd, Tawharanui Peninsula 0986, New Zealand"}, {"lat": -36.8513238, "lng": 174.7607214, "type": "Bottle Store", "name": "Liquor Stream", "address": "152 Hobson St, Auckland, 1010, New Zealand"}, {"lat": -37.100491, "lng": 174.877375, "type": "Supermarket", "name": "Karaka Country Supermarket", "address": "Corner of Linwood and Blackbridge Roads, Karaka, Auckland 2580, New Zealand"}, {"lat": -36.8940241, "lng": 174.9297025, "type": "Bottle Store", "name": "Howick Village Wines & Spirits", "address": "10 Wellington St, Howick, Auckland 2014, New Zealand"}, {"lat": -36.853164, "lng": 174.843357, "type": "Bottle Store", "name": "Liquorland Boutique Kohimarama", "address": "35 Melanesia Rd, Kohimarama, Auckland 1071, New Zealand"}, {"lat": -36.7758077, "lng": 174.5561329, "type": "Bottle Store", "name": "Kumeu Cellars", "address": "88 Main Rd, Kumeu 0810, New Zealand"}, {"lat": -36.7932028, "lng": 174.5432389, "type": "Wine Maker", "name": "Kerr Farm Vineyard", "address": "48 Dysart Ln, Kumeu 0891, New Zealand"}, {"lat": -36.987431, "lng": 174.8601424, "type": "Bottle Store", "name": "Scorpion Liquor", "address": "167 Puhinui Rd, Papatoetoe, Auckland 2104, New Zealand"}, {"lat": -36.6352983, "lng": 174.7459151, "type": "Bottle Store", "name": "Thirsty Liquor Whangaparaoa", "address": "707 Whangaparaoa Rd, Stanmore Bay, Whangaparaoa 0932, New Zealand"}, {"lat": -36.777899, "lng": 174.564042, "type": "Wine Maker", "name": "Kumeu River Wines", "address": "550, SH 16, Kumeu 0892, New Zealand"}, {"lat": -36.8763428, "lng": 174.8262675, "type": "Bottle Store", "name": "Meadowbank Wine & Spirits", "address": "18 St Johns Rd, Meadowbank, Auckland 1072, New Zealand"}, {"lat": -36.781863, "lng": 175.00839, "type": "Bottle Store", "name": "1St Stop Liquor", "address": "110 Oceanview Rd, Oneroa, Auckland 1081, New Zealand"}, {"lat": -36.6279547, "lng": 174.7331074, "type": "Bottle Store", "name": "Super Liquor Whangaparaoa", "address": "570 Whangaparaoa Rd, Stanmore Bay, Whangaparaoa 0932, New Zealand"}, {"lat": -36.7970737, "lng": 174.7784828, "type": "Bottle Store", "name": "Hauraki Corner Liquor", "address": "349 Lake Rd, Hauraki, Auckland 0622, New Zealand"}, {"lat": -36.783263, "lng": 174.731611, "type": "Grocery Store", "name": "Chartwell Discount Foodmarket", "address": "29 Chartwell Ave, Glenfield, Auckland 0629, New Zealand"}, {"lat": -40.900557, "lng": 174.885971, "type": "Bottle Store", "name": "Liquor & Tobacco City", "address": "Shopping Complex Far North Rd, Houhora, Far North 0484, New Zealand"}, {"lat": -36.9625101, "lng": 174.871794, "type": "Bottle Store", "name": "Kk Liquor", "address": "95 Ferguson Rd, Otara, Auckland 2023, New Zealand"}, {"lat": -36.5876406, "lng": 174.6966386, "type": "Bottle Store", "name": "The Bottle-O Orewa", "address": "302 Hibiscus Coast Hwy, Orewa 0931, New Zealand"}, {"lat": -36.9090707, "lng": 174.7298421, "type": "Mail Order", "name": "Liquorland Ltd", "address": "58 Roma Rd, Mt Roskill, Auckland 1041, New Zealand"}, {"lat": -36.8481993, "lng": 174.7638821, "type": "Mail Order", "name": "Love New Zealand Wine", "address": "Level 11/92 Albert Street, Auckland 1024, New Zealand"}, {"lat": -37.0239406, "lng": 174.8967383, "type": "Bottle Store", "name": "Super Liquor Manurewa", "address": "11 Weymouth Rd, Manurewa, Auckland 2102, New Zealand"}, {"lat": -36.8115329, "lng": 174.7239841, "type": "Bottle Store", "name": "Bottle O Highbury", "address": "61-75 Mokoia Rd, Birkenhead, Auckland 0626, New Zealand"}, {"lat": -36.8829116, "lng": 174.7855846, "type": "Bottle Store", "name": "De Cellar", "address": "182 Great South Rd, Epsom, Auckland 1051, New Zealand"}, {"lat": -36.9651717, "lng": 174.90233, "type": "Grocery Store", "name": "Botany Junction Four Square", "address": "37c/277 Te Irirangi Dr, Botany Junction, Auckland 2016, New Zealand"}, {"lat": -36.9001264, "lng": 174.7420714, "type": "Supermarket", "name": "Tai Ping", "address": "911 Dominion Rd, Mount Roskill, Auckland 1041, New Zealand"}, {"lat": -36.867373, "lng": 174.773598, "type": "Bottle Store", "name": "Maison Vauron", "address": "5 McColl St, Newmarket, Auckland 1023, New Zealand"}, {"lat": -36.8723361, "lng": 174.7432885, "type": "Bottle Store", "name": "The Bottle O", "address": "509 New North Rd, Kingsland, Auckland 1021, New Zealand"}, {"lat": -37.0225905, "lng": 174.8991828, "type": "Chartered Club", "name": "Manurewa Cosmopolitan Club", "address": "6/10 Alfriston Rd, Manurewa, Auckland 2102, New Zealand"}, {"lat": -36.987431, "lng": 174.8601424, "type": "Bottle Store", "name": "Puhinui Wines & Spirits", "address": "167 Puhinui Rd, Papatoetoe, Auckland 2104, New Zealand"}, {"lat": -36.3520952, "lng": 174.7175744, "type": "Restaurant", "name": "The Vintry & Matakana Market Kitchen", "address": "2 Matakana Valley Rd, Matakana 0943, New Zealand"}, {"lat": -36.98009920000001, "lng": 174.8536809, "type": "Supermarket", "name": "New World Supermarket", "address": "65 St George St, Auckland 2025, New Zealand"}, {"lat": -36.85583099999999, "lng": 174.630996, "type": "Wine Maker", "name": "Mazurans", "address": "255 Lincoln Rd, Henderson, Auckland 0610, New Zealand"}, {"lat": -36.3399928, "lng": 174.7791331, "type": "Grocery Store", "name": "Omaha Beach Superette", "address": "4/1 MATARIKI St, Omaha 0986, New Zealand"}, {"lat": -37.0244825, "lng": 174.8709141, "type": "Bottle Store", "name": "Wordsworth Liquor", "address": "157 Wordsworth Rd, Manurewa, Auckland 2102, New Zealand"}, {"lat": -36.8481695, "lng": 174.7650705, "type": "Grocery Store", "name": "Midtown Superette", "address": "4/22 Durham St W, Auckland, 1010, New Zealand"}, {"lat": -41.2110967, "lng": 174.9332874, "type": "Bottle Store", "name": "Thirsty Liquor Huapai", "address": "253 Waiwhetu Road, Lower Hutt, Wellington, 5011, New Zealand"}, {"lat": -37.2499754, "lng": 174.7279252, "type": "Supermarket", "name": "New World Waiuku", "address": "49 Bowen St, Waiuku 2123, New Zealand"}, {"lat": -36.9982147, "lng": 174.8944885, "type": "Bottle Store", "name": "Manukau Liquor Centre", "address": "7/70 Everglade Dr, Goodwood Heights, Auckland 2105, New Zealand"}, {"lat": -36.874982, "lng": 174.734775, "type": "Bottle Store", "name": "Galaxy Liquor", "address": "628 New North Rd, Saint Lukes, Auckland 1021, New Zealand"}, {"lat": -37.0623041, "lng": 174.9435434, "type": "Bottle Store", "name": "Thirsty Liquor", "address": "129 O'Shannessey St, Papakura, 2110, New Zealand"}, {"lat": -37.209799, "lng": 174.908825, "type": "Bottle Store", "name": "Thirsty Liquor", "address": "5/3-9 Nelson St, Pukekohe, Franklin 2120, New Zealand"}, {"lat": 38.8898702, "lng": -77.1835981, "type": "Bottle Store", "name": "Dominion Wine & Spirits", "address": "107 Rowell Ct, Falls Church, VA 22046, USA"}, {"lat": -36.98648850000001, "lng": 174.8727319, "type": "Bottle Store", "name": "Lambie Drive Liquor Spot", "address": "25/16 Lambie Dr, Papatoetoe, Auckland 2104, New Zealand"}, {"lat": -36.744595, "lng": 174.6993867, "type": "Mail Order", "name": "The Beer Jerk", "address": "Douglas Alexander Parade, Rosedale, Auckland 0632, New Zealand"}, {"lat": -36.9095007, "lng": 174.7542655, "type": "Bottle Store", "name": "Three Kings Liquor", "address": "501 D, Mount Albert Road, Three Kings, Auckland 1042, New Zealand"}, {"lat": -36.9081298, "lng": 174.8383482, "type": "Bottle Store", "name": "Premier Liquor Centre", "address": "278 Penrose Rd, Mount Wellington, Auckland 1060, New Zealand"}, {"lat": -36.887374, "lng": 174.7116172, "type": "Bottle Store", "name": "Super Liquor Pt Chevalier", "address": "955 New North Rd, Mount Albert, Auckland 1025, New Zealand"}, {"lat": -36.9110255, "lng": 174.8715109, "type": "Grocery Store", "name": "Nosh", "address": "102 Pakuranga Rd, Pakuranga, Auckland 2010, New Zealand"}, {"lat": -36.874545, "lng": 174.8533453, "type": "Grocery Store", "name": "Nosh", "address": "133-135 Apirana Ave, St Johns, Auckland 1072, New Zealand"}, {"lat": -36.677924, "lng": 174.450071, "type": "Bottle Store", "name": "Super Liquor Helensville", "address": "26 Commercial Rd, Auckland 0800, New Zealand"}, {"lat": -37.0714438, "lng": 174.963939, "type": "Chartered Club", "name": "Papakura Club", "address": "5 Croskery Rd, Papakura, South Auckland 1730, New Zealand"}, {"lat": -36.9780864, "lng": 174.8525751, "type": "Chartered Club", "name": "Papatoetoe Cosmopolitan Club", "address": "53 Rangitoto Rd, Papatoetoe, Auckland 2025, New Zealand"}, {"lat": -36.724342, "lng": 174.693927, "type": "Bottle Store", "name": "Dairy Flat Liquor Store", "address": "2/225 Dairy Flat Highway, north shore, Albany, Auckland 0632, New Zealand"}, {"lat": -36.85877, "lng": 174.7550837, "type": "Bottle Store", "name": "Thirsty Liquor", "address": "464 Karangahape Road, Auckland 1010, New Zealand"}, {"lat": -36.8862788, "lng": 174.8574433, "type": "Wine Maker", "name": "Pernod Ricard New Zealand", "address": "171 Pilkington Rd, Tamaki, Auckland 1072, New Zealand"}, {"lat": -36.7430563, "lng": 174.6994067, "type": "Mail Order", "name": "Pieroth Wines", "address": "23 Douglas Alexander Parade, Rosedale, North Harbour 0632, New Zealand"}, {"lat": -36.9111869, "lng": 174.6522471, "type": "Bottle Store", "name": "West Liquor-Glen Eden", "address": "43-45 Glenmall Pl, Glen Eden, Auckland 0602, New Zealand"}, {"lat": -36.8585985, "lng": 174.7262441, "type": "Restaurant", "name": "Poshslosh", "address": "Larchwood Ave, Westmere, Auckland 1022, New Zealand"}, {"lat": -36.8810526, "lng": 174.7996039, "type": "Bottle Store", "name": "Liquorland Remuera", "address": "427 Remuera Rd, Remuera, Auckland 1050, New Zealand"}, {"lat": -36.5124869, "lng": 174.659887, "type": "Mail Order", "name": "Puhoi Organic Distillery", "address": "9 Saleyards Rd, Puhoi 0951, New Zealand"}, {"lat": -36.5123296, "lng": 174.6606194, "type": "Hotel", "name": "Puhoi Hotel", "address": "5 Saleyards Rd, Puhoi 0951, New Zealand"}, {"lat": -36.9570681, "lng": 175.0544317, "type": "Wine Maker", "name": "Puriri Hills Vineyard", "address": "398 North Rd, Clevedon, Papakura 2582, New Zealand"}, {"lat": -36.778998, "lng": 174.744093, "type": "Supermarket", "name": "Pak N Save", "address": "30-60 Wairau Rd, Glenfield, Auckland 0627, New Zealand"}, {"lat": -36.9260633, "lng": 174.7995939, "type": "Mail Order", "name": "Q-Liquid", "address": "232A Neilson St, Onehunga, Auckland 1061, New Zealand"}, {"lat": -36.9703825, "lng": 174.8453139, "type": "Bottle Store", "name": "Swaffield Wines & Spirits", "address": "28 Swaffield Rd, Papatoetoe, Auckland 2025, New Zealand"}, {"lat": -36.90085, "lng": 174.857013, "type": "Bottle Store", "name": "Panmure Wines & Spirits", "address": "174 Queens Rd, Panmure, Auckland 1072, New Zealand"}, {"lat": -36.6060111, "lng": 174.698467, "type": "Grocery Store", "name": "Red Beach Four Square", "address": "Hibiscus Coast Highway, Dx Box:, shop 1/42 Red Beach Rd, Bx 10628, Red Beach 0932, New Zealand"}, {"lat": -36.7940905, "lng": 175.0553975, "type": "Brewer", "name": "Relativity Brewing Ltd", "address": "29B Tahi Rd, Ostend, Auckland 1081, New Zealand"}, {"lat": -36.8114278, "lng": 174.7114858, "type": "Supermarket", "name": "New World Birkenhead", "address": "180 Mokoia Rd, Birkenhead, Auckland 0626, New Zealand"}, {"lat": -37.0590251, "lng": 174.9401211, "type": "Bottle Store", "name": "Bottle Shop", "address": "77 Great South Rd, Papakura, 2110, New Zealand"}, {"lat": -36.8646539, "lng": 174.7726424, "type": "Bottle Store", "name": "Brews Newmarket", "address": "77 Carlton Gore Rd, Newmarket, Auckland 1023, New Zealand"}, {"lat": -36.8685978, "lng": 174.7643703, "type": "Complimentary", "name": "Sabato", "address": "57 Normanby Rd, Mount Eden, Mt Eden 1024, New Zealand"}, {"lat": -36.8685978, "lng": 174.7643703, "type": "Complimentary", "name": "Sabato", "address": "57 Normanby Rd, Mount Eden, Mt Eden 1024, New Zealand"}, {"lat": -37.0743349, "lng": 174.9304635, "type": "Tavern", "name": "Whitehouse Tavern", "address": "Dumas Pl, Rosehill, Papakura 2113, New Zealand"}, {"lat": -36.7866332, "lng": 175.0126331, "type": "Mail Order", "name": "Sam Harrop Wine Ltd", "address": "Manuka Rd, Oneroa, Auckland 1081, New Zealand"}, {"lat": -36.9089661, "lng": 174.8892148, "type": "Bottle Store", "name": "Gossamer Liquor", "address": "6 Ussher Pl, Pakuranga, Manukau 2010, New Zealand"}, {"lat": -37.0317324, "lng": 174.868318, "type": "Bottle Store", "name": "Rowandale Liquor Store", "address": "459-469 Roscommon Rd, Clendon Park, Auckland 2103, New Zealand"}, {"lat": -36.7863437, "lng": 174.5168433, "type": "Mail Order", "name": "Www.Sapori.Co.Nz", "address": "Puke Rd, Kumeu 0891, New Zealand"}, {"lat": -36.9118906, "lng": 174.9003706, "type": "Bottle Store", "name": "Liquor Spot Cascades Road", "address": "5/117 Cascades Rd, Pakuranga Heights, Auckland 2010, New Zealand"}, {"lat": -36.846787, "lng": 174.7640574, "type": "Hotel", "name": "Shakespeare Hotel", "address": "61 Albert St, Auckland, 1010, New Zealand"}, {"lat": -36.8911103, "lng": 174.7956068, "type": "Bottle Store", "name": "Super Liquor", "address": "396 Great South Rd, Greenlane, Auckland 1051, New Zealand"}, {"lat": -36.9684476, "lng": 174.7970282, "type": "Supermarket", "name": "Shop N Save Supermarket", "address": "Corner of Bader Drive and, Orly Ave, Mangere, Auckland 2022, New Zealand"}, {"lat": -36.6204127, "lng": 174.6729052, "type": "Supermarket", "name": "Pak N Save Silverdale", "address": "20 Hibiscus Coast Hwy, Silverdale 0993, New Zealand"}, {"lat": -36.9748489, "lng": 174.8638689, "type": "Bottle Store", "name": "St George Liquor Bargain", "address": "261 St George St, Papatoetoe, Auckland 2025, New Zealand"}, {"lat": -36.9793805, "lng": 174.8557047, "type": "Bottle Store", "name": "Thirsty Liquor", "address": "2/252 Great South Rd, Papatoetoe, Auckland 2025, New Zealand"}, {"lat": -36.9146103, "lng": 174.804285, "type": "Bottle Store", "name": "Mt Smart Liquor", "address": "263 Mount Smart Rd, Onehunga, Auckland 1061, New Zealand"}, {"lat": -36.4181442, "lng": 174.7236926, "type": "Bottle Store", "name": "Liquorland Snells Beach", "address": "240 Mahurangi E Rd, Snells Beach 0920, New Zealand"}, {"lat": -36.840958, "lng": 174.7435552, "type": "Mail Order", "name": "Soho Wine Co Ltd", "address": "81 Shelly Beach Rd, St Marys Bay, Auckland 1011, New Zealand"}, {"lat": -36.7809022, "lng": 174.7212622, "type": "Bottle Store", "name": "Glenfield Liquor Centre", "address": "442 Glenfield Rd, Glenfield, Auckland 0629, New Zealand"}, {"lat": -36.8572393, "lng": 174.7618893, "type": "Bottle Store", "name": "The Bottle-O Queen Street", "address": "01010/508c Queen St, Auckland, 1010, New Zealand"}, {"lat": -36.8872135, "lng": 174.8448007, "type": "Grocery Store", "name": "Supervalue Stonefields", "address": "Stonefields SuperValue, 11/40 Stonefields Ave, Stonefields, Auckland 1072, New Zealand"}, {"lat": -36.9824886, "lng": 174.8763185, "type": "Bottle Store", "name": "Kiwi Liquor", "address": "12F Puhinui Rd, Manukau, Auckland 2104, New Zealand"}, {"lat": -36.887374, "lng": 174.7116172, "type": "Bottle Store", "name": "Super Liquor Mt Albert", "address": "955 New North Rd, Mount Albert, Auckland 1025, New Zealand"}, {"lat": -36.9133467, "lng": 174.8400897, "type": "Supermarket", "name": "Pak N Sav", "address": "Sylvia Park, 286 Mount Wellington Hwy, 1060, New Zealand"}, {"lat": -36.853164, "lng": 174.843357, "type": "Bottle Store", "name": "Discount Liquor Store", "address": "35 Melanesia Rd, Kohimarama, Auckland 1071, New Zealand"}, {"lat": -37.0285371, "lng": 174.8715608, "type": "Bottle Store", "name": "Sharland Liquor", "address": "3/42 Sharland Ave, Manurewa, Auckland 2102, New Zealand"}, {"lat": -36.9739893, "lng": 174.8105221, "type": "Bottle Store", "name": "Quick Stop Liquor", "address": "51 Imrie Ave, Mangere, Auckland 2022, New Zealand"}, {"lat": -36.9701227, "lng": 174.7991884, "type": "Bottle Store", "name": "Pacific Liquor", "address": "21 Mangere Town Square, Mangere, Auckland 2022, New Zealand"}, {"lat": -37.0392331, "lng": 174.9198951, "type": "Bottle Store", "name": "Takanini Liquor Bargain", "address": "15 Princess St, Takanini 2112, New Zealand"}, {"lat": -36.6827159, "lng": 174.717304, "type": "Mail Order", "name": "Auckland Wine Club", "address": "137 Okura River Rd, Okura, Auckland 0792, New Zealand"}, {"lat": -36.750035, "lng": 174.726822, "type": "Bottle Store", "name": "The Fine Wine Delivery Company", "address": "60 Constellation Dr, Mairangi Bay, Auckland 0632, New Zealand"}, {"lat": -36.9768943, "lng": 174.896817, "type": "Grocery Store", "name": "Supervalue Flat Bush", "address": "8/130 Dawson Rd, Flatbush, Auckland 2023, New Zealand"}, {"lat": -36.8484597, "lng": 174.7633315, "type": "Wine Maker", "name": "The Landing Wines Ltd", "address": "Auckland, 1010, New Zealand"}, {"lat": -36.7156955, "lng": 174.7456812, "type": "Complimentary", "name": "The Original Sa Shop", "address": "12/18 Inverness Rd, Browns Bay, 0630, New Zealand"}, {"lat": -36.799767, "lng": 175.032763, "type": "Bottle Store", "name": "Goldie Wines", "address": "18 Causeway Rd, Surfdale, Auckland 1081, New Zealand"}, {"lat": -36.7264556, "lng": 174.7475675, "type": "Bottle Store", "name": "The Wine Barrel", "address": "599 Beach Rd, Rothesay Bay, Auckland 0630, New Zealand"}, {"lat": -36.8914239, "lng": 174.8215863, "type": "Bottle Store", "name": "Cobra Liquor", "address": "71 Marua Rd, Ellerslie, Auckland 1051, New Zealand"}, {"lat": -36.6957341, "lng": 174.7519127, "type": "Bottle Store", "name": "Torbay Cellars", "address": "1032 Beach Rd, Torbay, Auckland 0630, New Zealand"}, {"lat": -36.7494722, "lng": 174.7009325, "type": "Bottle Store", "name": "Albany Liquor", "address": "638 William Pickering Dr, Rosedale, North Harbour 0632, New Zealand"}, {"lat": -36.959082, "lng": 174.9720899, "type": "Tavern", "name": "Turanga Creek", "address": "133 Whitford Park Rd, Whitford, Auckland 2576, New Zealand"}, {"lat": -36.7402845, "lng": 174.5280709, "type": "Wine Maker", "name": "Twin Totara Wines", "address": "816 Old N Rd, Waimauku 0882, New Zealand"}, {"lat": -37.1877754, "lng": 174.8285769, "type": "Grocery Store", "name": "Patumahoe 4 Square", "address": "13 Patumahoe Rd, Patumahoe 2679, New Zealand"}, {"lat": -36.927795, "lng": 174.8911922, "type": "Bottle Store", "name": "Thirsty Liquor", "address": "10/15 Trugood Dr, East Tamaki, Auckland 2013, New Zealand"}, {"lat": -36.9464882, "lng": 174.9134066, "type": "Mail Order", "name": "Liqco", "address": "Carousel Cres, East Tamaki Heights, Auckland 2016, New Zealand"}, {"lat": -36.8591916, "lng": 174.8612988, "type": "Bottle Store", "name": "Maskell Street Liquor", "address": "29 Maskell St, St Heliers, Auckland 1071, New Zealand"}, {"lat": -36.8771894, "lng": 174.7339327, "type": "Bottle Store", "name": "Wholesale Wine Merchants", "address": "7 Gordon Rd, Western Springs, Auckland 1025, New Zealand"}, {"lat": -36.944042, "lng": 174.901357, "type": "Mail Order", "name": "Vitis Cellars", "address": "9/41 Smales Rd, East Tamaki, Auckland 2013, New Zealand"}, {"lat": -36.8459866, "lng": 174.7699962, "type": "Tavern", "name": "Vivace", "address": "85 Fort St, Central City, Auckland 1010, New Zealand"}, {"lat": -36.854964, "lng": 174.7318949, "type": "Bottle Store", "name": "Ponsonby Liquor", "address": "3/280 Richmond Rd, Grey Lynn, Auckland 1021, New Zealand"}, {"lat": -36.879184, "lng": 174.750113, "type": "Bottle Store", "name": "Liquorland Mt Eden", "address": "346 Dominion Rd, Mount Eden, Auckland 1024, New Zealand"}, {"lat": -36.7220284, "lng": 174.6916916, "type": "Bottle Store", "name": "Super Liquor", "address": "274 Dairy Flat Hwy, Albany, Auckland 0793, New Zealand"}, {"lat": -36.7962433, "lng": 175.0474226, "type": "Chartered Club", "name": "Waiheke Returned Services Association", "address": "29 Belgium St, Ostend, Waiheke Island, Auckland 1081, New Zealand"}, {"lat": -36.9046122, "lng": 174.659794, "type": "Bottle Store", "name": "Local Liquor Glendene", "address": "4055 Great North Rd, Glen Eden, Auckland 0602, New Zealand"}, {"lat": -36.8571554, "lng": 174.6371995, "type": "Bottle Store", "name": "Outlet Liquor", "address": "95 Central Park Dr, Henderson, Auckland 0610, New Zealand"}, {"lat": -36.80025920000001, "lng": 174.6428625, "type": "Bottle Store", "name": "West Harbour Wines And Spirits", "address": "118 Hobsonville Rd, Hobsonville, Auckland 0618, New Zealand"}, {"lat": -36.834692, "lng": 174.6025069, "type": "Bottle Store", "name": "Local Liquor Don Buck", "address": "396 Don Buck Rd, Massey, Massey West 0614, New Zealand"}, {"lat": -36.8331987, "lng": 174.6226133, "type": "Bottle Store", "name": "Local Liquor Royal Heights", "address": "11/138 Royal Rd, Massey, Auckland 0614, New Zealand"}, {"lat": -36.865495, "lng": 174.5804443, "type": "Bottle Store", "name": "Local Liquor Swanson", "address": "705 Swanson Rd, Swanson, Auckland 0612, New Zealand"}, {"lat": -36.8627986, "lng": 174.6483644, "type": "Bottle Store", "name": "Local Liquor All Seasons", "address": "4/288 Te Atatu Rd, Te Atatu South, Auckland 0610, New Zealand"}, {"lat": -36.8863145, "lng": 174.6282157, "type": "Bottle Store", "name": "Local Liquor Valley Road", "address": "45 Henderson Valley Rd, Henderson, Auckland 0612, New Zealand"}, {"lat": -36.91095, "lng": 174.6514517, "type": "Bottle Store", "name": "King Dicks Railside", "address": "29 Glenmore Place, Glen Eden, Auckland 0602, New Zealand"}, {"lat": -36.8635489, "lng": 174.6140218, "type": "Bottle Store", "name": "West Liquor - Westside", "address": "264 Swanson Rd, Henderson, Auckland 0610, New Zealand"}, {"lat": -36.79771, "lng": 174.648609, "type": "Bottle Store", "name": "West Liquor Hobsonville", "address": "124 Hobsonville Rd, Hobsonville, Auckland 0618, New Zealand"}, {"lat": -36.8212237, "lng": 174.6094853, "type": "Restaurant", "name": "West Liquor - Cellar Door", "address": "2 Cellar Ct, Massey, Auckland 0614, New Zealand"}, {"lat": -36.6188173, "lng": 174.67688, "type": "Distillery", "name": "Waiwera Organic Winery", "address": "Silverdale, New Zealand"}, {"lat": -36.85134499999999, "lng": 174.8579089, "type": "Bottle Store", "name": "Wanderlust Wines Ltd", "address": "St Heliers, Auckland 1071, New Zealand"}, {"lat": -36.810799, "lng": 174.725636, "type": "Bottle Store", "name": "Liquor People", "address": "36 Birkenhead Ave, Birkenhead, Auckland 0626, New Zealand"}, {"lat": -36.8505084, "lng": 174.8448951, "type": "Mail Order", "name": "My Beer Fridge", "address": "Kohimarama, Auckland 1071, New Zealand"}, {"lat": -36.7256216, "lng": 174.5450731, "type": "Wine Maker", "name": "West Brook Winery", "address": "215 Ararimu Valley Rd, Waimauku 0882, New Zealand"}, {"lat": -36.7724255, "lng": 174.5441465, "type": "Bottle Store", "name": "Wine Circle", "address": "2/329 SH 16, Huapai, Auckland 0810, New Zealand"}, {"lat": -36.853569, "lng": 174.784165, "type": "Bottle Store", "name": "Wine Direct", "address": "69 St Georges Bay Rd, Parnell, Auckland 1052, New Zealand"}, {"lat": -36.9254215, "lng": 174.820795, "type": "Mail Order", "name": "Wine2U.Co.Nz", "address": "12 Southpark Pl, Penrose, Auckland 1061, New Zealand"}, {"lat": -36.8565207, "lng": 174.8675999, "type": "Mail Order", "name": "Wine Friend", "address": "16 Chesterfield Ave, Glendowie, Auckland 1071, New Zealand"}, {"lat": -36.92981899999999, "lng": 174.8426077, "type": "Bottle Store", "name": "Mt Richmond Super Liquor", "address": "Shop 8, 627 Mount Wellington Highway, Otahuhu 1062, Auckland, New Zealand, richmond_627@yahoo.co.nz, New Zealand"}, {"lat": -36.844005, "lng": 174.760122, "type": "Grocery Store", "name": "The Point Store", "address": "125 Customs St W, West, Auckland 1010, New Zealand"}, {"lat": -36.9203746, "lng": 174.8766797, "type": "Bottle Store", "name": "Pakuranga Liquor Centre", "address": "109 Ti Rakau Dr, Pakuranga, Auckland 2010, New Zealand"}, {"lat": -36.7873247, "lng": 174.5831422, "type": "Grocery Store", "name": "Riverhead Minimarket Country Store", "address": "1404 Coatesville-Riverhead Hwy, Auckland 0892, New Zealand"}, {"lat": -36.8474982, "lng": 174.7617013, "type": "Bottle Store", "name": "Oakland Liquor", "address": "51 Hobson St, Auckland, Auckland CBD 1072, New Zealand"}, {"lat": -36.87011, "lng": 174.77557, "type": "Mail Order", "name": "Zarbo", "address": "24 Morrow St, Newmarket, 1023, New Zealand"}, {"lat": -36.8818796, "lng": 174.7622647, "type": "Grocery Store", "name": "Eden Foods", "address": "444 Mount Eden Rd, Mount Eden, Auckland 1024, New Zealand"}, {"lat": -36.7939443, "lng": 174.7461947, "type": "Bottle Store", "name": "54 Liquor", "address": "54 Northcote Rd, Northcote, Auckland 0627, New Zealand"}, {"lat": -36.7939443, "lng": 174.7461947, "type": "Bottle Store", "name": "54 Liquor", "address": "54 Northcote Rd, Northcote, Auckland 0627, New Zealand"}, {"lat": -36.9426945, "lng": 174.7869318, "type": "Bottle Store", "name": "Mangere Bridge Discount Liquor", "address": "42 Coronation Rd, Mangere Bridge, Auckland 2022, New Zealand"}, {"lat": -37.05363, "lng": 174.9306706, "type": "Supermarket", "name": "Pak 'N Save Papakura", "address": "331 Great South Rd, Papakura, Auckland 2110, New Zealand"}, {"lat": -37.137488, "lng": 174.7524006, "type": "Grocery Store", "name": "Waiau Pa Four Square", "address": "581 Waiau Pa Rd, Waiau Pa 2679, New Zealand"}, {"lat": -36.8530356, "lng": 174.764231, "type": "Bottle Store", "name": "Liquor Zone", "address": "9-15 Wakefield St, Auckland, 1010, New Zealand"}, {"lat": -36.6188173, "lng": 174.67688, "type": "Bottle Store", "name": "Boutique Wines And More", "address": "Silverdale, New Zealand"}, {"lat": -36.734281, "lng": 174.733791, "type": "Bottle Store", "name": "East Coast Liquor", "address": "6 Rosedale Rd, Windsor Park, Auckland 0632, New Zealand"}, {"lat": -36.768773, "lng": 174.523948, "type": "Tavern", "name": "Coopers Creek Vineyard", "address": "601 SH 16, Huapai, Kumeu 0891, New Zealand"}, {"lat": -36.98648850000001, "lng": 174.8727319, "type": "Bottle Store", "name": "Liquor Spot", "address": "25/16 Lambie Dr, Papatoetoe, Auckland 2104, New Zealand"}, {"lat": -36.927795, "lng": 174.8911922, "type": "Bottle Store", "name": "Thirsty Liquor Trugood Drive", "address": "10/15 Trugood Dr, East Tamaki, Auckland 2013, New Zealand"}, {"lat": -36.88542959999999, "lng": 174.7608684, "type": "Bottle Store", "name": "Storm Liquor", "address": "475 Mount Eden Rd, Mount Eden, Auckland 1024, New Zealand"}, {"lat": -36.8989184, "lng": 174.8520502, "type": "Bottle Store", "name": "Panmure Liquor", "address": "10 Queens Rd, Panmure, Auckland 1072, New Zealand"}, {"lat": -36.5866121, "lng": 174.6936599, "type": "Supermarket", "name": "New World Supermarket Orewa", "address": "11 Moana Ave, Orewa 0931, New Zealand"}, {"lat": -36.9134877, "lng": 174.9288159, "type": "Supermarket", "name": "Countdown", "address": "Cnr Meadowlands Drive & Whitford Road, Meadowlands, Auckland 2014, New Zealand"}, {"lat": -37.1997137, "lng": 174.9019817, "type": "Supermarket", "name": "Countdown Pukekohe", "address": "Cnr Tobin & Seddon Sts, Pukekohe, Auckland 2120, New Zealand"}, {"lat": -36.3857, "lng": 174.7078703, "type": "Wine Maker", "name": "Gillman Vineyard", "address": "99 Sharp Rd, Laly Haddon Place, Matakana 0982, New Zealand"}, {"lat": -36.880126, "lng": 174.7504065, "type": "Bottle Store", "name": "Liquor 360", "address": "360 d, Dominion Rd, Mount Eden, Auckland 1024, New Zealand"}, {"lat": -36.927795, "lng": 174.8911922, "type": "Bottle Store", "name": "Thirsty Liquor Ti Rakau Dr", "address": "10/15 Trugood Dr, East Tamaki, Auckland 2013, New Zealand"}, {"lat": -36.72891, "lng": 174.731016, "type": "Bottle Store", "name": "Pinehill Liquor Centre", "address": "650 East Coast Road, Pinehill, Auckland 0630, New Zealand"}, {"lat": -40.3512478, "lng": 175.5847279, "type": "Bottle Store", "name": "Botany Wines Beers & Spirits", "address": "6/2 Botanical Rd, Highbury, Palmerston North 4412, New Zealand"}, {"lat": -37.0124118, "lng": 174.9117091, "type": "Bottle Store", "name": "The Gardens Liquor", "address": "4/130 Hill Rd, Manurewa, Auckland 2105, New Zealand"}, {"lat": -36.724217, "lng": 174.688855, "type": "Bottle Store", "name": "Liquor Centre Albany", "address": "4/28 The Avenue, Albany, Auckland 0632, New Zealand"}, {"lat": -36.675758, "lng": 174.450709, "type": "Bottle Store", "name": "Helensville Liquor", "address": "88 Commercial Rd, Helensville 0800, New Zealand"}, {"lat": -37.0217393, "lng": 174.8944775, "type": "Chartered Club", "name": "Manurewa Rsa Club", "address": "2 Maich Rd, Manurewa, Auckland 2102, New Zealand"}, {"lat": -36.9930376, "lng": 174.8860062, "type": "Bottle Store", "name": "Super Liqour Manukau", "address": "6/726 Great South Rd, Manukau, Auckland 2104, New Zealand"}, {"lat": -36.843765, "lng": 174.762814, "type": "Mail Order", "name": "New Zealand School Of Food And Wine", "address": "3/104 Customs St W, Viaduct, Auckland 1010, New Zealand"}, {"lat": -36.9253035, "lng": 174.9125734, "type": "Bottle Store", "name": "Bottle O Botany", "address": "301 A Botany Road, Golflands, Auckland 2013, New Zealand"}, {"lat": -36.78828439999999, "lng": 175.0634471, "type": "Wine Maker", "name": "Obsidian Vineyard", "address": "22 Te Makiri Rd, Onetangi, Auckland 1840, New Zealand"}, {"lat": -36.791083, "lng": 174.747823, "type": "Bottle Store", "name": "Poenamo Super Liquor", "address": "3 Sunnybrae Rd, Hillcrest, Auckland 0627, New Zealand"}, {"lat": -36.756602, "lng": 174.702084, "type": "Bottle Store", "name": "Schnapper Rock Cellar", "address": "shop 3/1 Schnapper Rock Rd, Greenhithe, Albany 0632, New Zealand"}, {"lat": -36.94890609999999, "lng": 174.8913563, "type": "Bottle Store", "name": "Kerwyn Liquor", "address": "2 Kerwyn Avenue, East Tamaki, Auckland 2013, New Zealand"}, {"lat": -37.0629285, "lng": 174.9403057, "type": "Bottle Store", "name": "Super Liquor", "address": "25 Elliot St, Papakura, Auckland 2110, New Zealand"}, {"lat": -36.6369154, "lng": 174.7479666, "type": "Bottle Store", "name": "Whangaparaoa Wine Cellars", "address": "1 Wade River Rd, Manly, Whangaparaoa 0930, New Zealand"}, {"lat": -36.948973, "lng": 174.911188, "type": "Bottle Store", "name": "Willowbank Liquor", "address": "125 Gracechurch Dr Manukau, Flat Bush, Auckland 2016, New Zealand"}, {"lat": -36.6033133, "lng": 174.6925635, "type": "Bottle Store", "name": "Super Liquor Red Beach", "address": "178 Hibiscus Coast Hwy, Auckland 0932, New Zealand"}, {"lat": -36.841179, "lng": 174.7575621, "type": "Tavern", "name": "16 Turn", "address": "10/26 Jellicoe St, Auckland, 1050, New Zealand"}, {"lat": -36.7640556, "lng": 174.7364454, "type": "Supermarket", "name": "T-Mark Supermarket", "address": "20 Link Dr, Wairau Valley, Auckland 0627, New Zealand"}, {"lat": -36.848557, "lng": 174.766532, "type": "Tavern", "name": "No 1 Cafe", "address": "50 High St, Auckland, 1010, New Zealand"}, {"lat": -36.8487779, "lng": 174.7380663, "type": "Mail Order", "name": "Rogue Society Gin", "address": "Ponsonby, Auckland, New Zealand"}, {"lat": -36.9117871, "lng": 174.776076, "type": "Bottle Store", "name": "Thirsty Liquor Royal Oak", "address": "Royal Oak, Auckland 1023, New Zealand"}, {"lat": -37.0553141, "lng": 175.0332994, "type": "Wine Maker", "name": "Vin Alto", "address": "424 Creightons Road, 2582, New Zealand"}, {"lat": -37.2513975, "lng": 174.7326256, "type": "Chartered Club", "name": "Waiuku Cosmopolitan Club", "address": "4 Victoria Ave, Waiuku 2123, New Zealand"}, {"lat": -41.304489, "lng": 174.794381, "type": "Mail Order", "name": "Willow & Wolfe", "address": "27c Waitoa Rd, Hataitai, Wellington 6021, New Zealand"}, {"lat": -36.741524, "lng": 174.723563, "type": "Other", "name": "Wine Central", "address": "19 Triton Dr, Rosedale, Auckland 0632, New Zealand"}, {"lat": -36.909118, "lng": 174.813702, "type": "Bottle Store", "name": "Wine Direct", "address": "19 Station Rd, Penrose, Auckland 1061, New Zealand"}, {"lat": -36.8484597, "lng": 174.7633315, "type": "Mail Order", "name": "Winegrowers Of Ara", "address": "Auckland, 1010, New Zealand"}, {"lat": -36.9259141, "lng": 174.8949306, "type": "Bottle Store", "name": "Super Liquor Burswood", "address": "284 Ti Rakau Dr, Burswood, Manukau 2013, New Zealand"}, {"lat": -37.0309487, "lng": 174.8600071, "type": "Bottle Store", "name": "Finlayson Liquor", "address": "Unit 2/4/140 Finlayson Ave, Clendon Park, Auckland 2103, New Zealand"}, {"lat": -36.9693817, "lng": 174.8614796, "type": "Bottle Store", "name": "Super Liquor Papatoetoe", "address": "24B Charles St, Papatoetoe, Auckland 2025, New Zealand"}, {"lat": -36.897228, "lng": 174.7332073, "type": "Bottle Store", "name": "Thirsty Liquor Sandringham", "address": "691 Sandringham Road Extension, Sandringham, Auckland 1041, New Zealand"}, {"lat": -36.958707, "lng": 174.902813, "type": "Wine Maker", "name": "Nfz Wine Boutique", "address": "3/1 Bishop Dunn Pl, Flat Bush, Auckland 2013, New Zealand"}, {"lat": -37.2001399, "lng": 174.9078548, "type": "Bottle Store", "name": "Super Liquor Pukekohe ", "address": "2/16 Stadium Drive, Pukekohe, Auckland 2120, New Zealand"}, {"lat": -36.9088768, "lng": 174.6633576, "type": "Bottle Store", "name": "Wine Villa-Kelston", "address": "Shop 8, Kelston Shopping Centre Cnr Great North & West Coast Roads, Kelston, Auckland 0602, New Zealand"}, {"lat": -36.775785, "lng": 174.556376, "type": "Grocery Store", "name": "Kumeu Four Square", "address": "Village Shopping Centre, Kumeu, 0810, New Zealand"}, {"lat": -36.7299737, "lng": 174.7066474, "type": "Supermarket", "name": "Pak 'N' Save Albany", "address": "139/163 Don Mckinnon Dr, Albany, Auckland 0632, New Zealand"}, {"lat": -36.8489055, "lng": 174.757129, "type": "Bottle Store", "name": "Victoria Wines & Spirits", "address": "118 Wellesley St West, Auckland, 1010, New Zealand"}, {"lat": -36.9074138, "lng": 174.8048243, "type": "Bottle Store", "name": "Thirsty Liquor Rockfield", "address": "81a Rockfield Rd, Onehunga, Auckland 1061, New Zealand"}, {"lat": -36.7549451, "lng": 174.7047207, "type": "Bottle Store", "name": "Bush Road Liquor Centre", "address": "235 Bush Rd, Albany, Auckland 0632, New Zealand"}, {"lat": -36.8425242, "lng": 174.7539099, "type": "Tavern", "name": "Departure Lounge", "address": "142 Beaumont St, Westhaven, Auckland 1010, New Zealand"}, {"lat": -36.8498894, "lng": 174.8690525, "type": "Bottle Store", "name": "Thirsty Liquor St Heliers", "address": "54 Waimarie St, St Heliers, Auckland 1071, New Zealand"}, {"lat": -36.9058831, "lng": 174.6227361, "type": "Wine Maker", "name": "Artisan Wines", "address": "99 Parrs Cross Rd, Henderson, Auckland 0612, New Zealand"}, {"lat": -36.86810699999999, "lng": 174.755042, "type": "Caterer Endorsed", "name": "Austin'S ", "address": "1 Porters Ave, Auckland 1024, New Zealand"}, {"lat": -37.1895194, "lng": 174.9026302, "type": "Bottle Store", "name": "Counties Inn Liquor Centre", "address": "21 Paerata Rd, Pukekohe 2120, New Zealand"}, {"lat": -36.7905046, "lng": 174.7644962, "type": "Bottle Store", "name": "Barrys Point Liquor Centre", "address": "1 Barry's Point Road, Takapuna, Auckland 0622, New Zealand"}, {"lat": -37.100978, "lng": 174.951572, "type": "Bottle Store", "name": "Jolly Farmer Wholesale", "address": "200 Great South Rd, Drury, 2113, New Zealand"}, {"lat": -36.8502725, "lng": 174.8580761, "type": "Tavern", "name": "Moreton'S", "address": "425 Tamaki Dr, St Heliers, Auckland 1071, New Zealand"}, {"lat": -36.87942049999999, "lng": 174.7338506, "type": "Bottle Store", "name": "St Lukes Liquor Centre", "address": "Unit 6/55 Sainsbury Rd, Mount Albert, Auckland 1025, New Zealand"}, {"lat": -36.4201976, "lng": 174.7233673, "type": "Grocery Store", "name": "Mahurangi Four Square", "address": "Mahurangi East Rd Snells Beach Mahurangi, 0920, New Zealand"}, {"lat": -36.8951712, "lng": 174.9329369, "type": "Tavern", "name": "Basalt", "address": "127 Picton St, Howick, Auckland 2014, New Zealand"}, {"lat": -36.748171, "lng": 174.735318, "type": "Mail Order", "name": "", "address": "AutoSpot North Shore,, 5 Parkway Dr, Rosedale, Auckland 0632, New Zealand"}, {"lat": -36.9693817, "lng": 174.8614796, "type": "Bottle Store", "name": "Super Liquor", "address": "24B Charles St, Papatoetoe, Auckland 2025, New Zealand"}, {"lat": -36.8782772, "lng": 174.8166406, "type": "Mail Order", "name": "Cliff Edge Wines", "address": "Pukeora Ave, Remuera, Auckland 1050, New Zealand"}, {"lat": -36.8631063, "lng": 174.7976309, "type": "Mail Order", "name": "Bevee", "address": "Burwood Cres, Remuera, Auckland 1050, New Zealand"}, {"lat": -36.9424477, "lng": 174.8444859, "type": "Bottle Store", "name": "Super Liquor Otahuhu", "address": "52 Atkinson Ave, Otahuhu, Auckland 1062, New Zealand"}, {"lat": -36.8597678, "lng": 174.7009529, "type": "Restaurant", "name": "Black Dragon Industries", "address": "Raymond St, Point Chevalier, Auckland 1022, New Zealand"}, {"lat": -36.799767, "lng": 175.032763, "type": "Wine Maker", "name": "The Goldie Room", "address": "18 Causeway Rd, Surfdale, Auckland 1081, New Zealand"}, {"lat": -36.6982253, "lng": 174.7333894, "type": "Bottle Store", "name": "Torbay Liquor", "address": "61 Stredwick Dr, Torbay, Auckland 0630, New Zealand"}, {"lat": -36.35189800000001, "lng": 174.716877, "type": "Grocery Store", "name": "Matakana Four Square", "address": "Place, 21 Matakana Valley Rd, Laly Haddon, Matakana 0985, New Zealand"}, {"lat": -36.8691275, "lng": 174.7493769, "type": "Bottle Store", "name": "Garage Project", "address": "357 New North Rd, Kingsland, Auckland 1021, New Zealand"}, {"lat": -36.407751, "lng": 174.720834, "type": "Wine Maker", "name": "The Glass House- Brick Bay", "address": "17 Arabella Ln, Snells Beach, Warkworth 0982, New Zealand"}, {"lat": -36.8500325, "lng": 174.7585613, "type": "Tavern", "name": "Brothers Beer", "address": "90 Wellesley St W, Auckland 1010, New Zealand"}, {"lat": -36.743393, "lng": 174.696725, "type": "Complimentary", "name": "Edible Blooms", "address": "Unit 5/44 William Pickering Drive, Albany, Auckland 0632, New Zealand"}, {"lat": -36.7837271, "lng": 174.7223704, "type": "Bottle Store", "name": "The Bottle O Glenfield", "address": "47 Downing St, Glenfield, Auckland 0629, New Zealand"}, {"lat": -36.7596752, "lng": 174.7398388, "type": "Bottle Store", "name": "Sunnynook Liquor Centre", "address": "106 Sunnynook Rd, Sunnynook, Auckland 0620, New Zealand"}, {"lat": -36.85779460000001, "lng": 174.7569546, "type": "Tavern", "name": "Cheers Nz Liquor", "address": "FIRST SHOP: 351, Karangahape Rd, Auckland 1010, New Zealand"}, {"lat": -36.7748423, "lng": 174.5541639, "type": "Supermarket", "name": "New World Kumeu", "address": "108-110 Main Rd, Auckland 0810, New Zealand"}, {"lat": -36.7920039, "lng": 174.9973925, "type": "Wine Maker", "name": "Jurassic Ridge", "address": "144 Church Bay Rd, Waiheke Island, Auckland 1971, New Zealand"}, {"lat": -36.9925565, "lng": 175.0374489, "type": "Bottle Store", "name": "Clevedon Village Liquor Store", "address": "14 Papakura-Clevedon Rd, Clevedon, 2582, New Zealand"}, {"lat": -36.8496161, "lng": 174.7633807, "type": "Hotel", "name": "Crowne Plaza Auckland", "address": "128 Albert St, Auckland, 1010, New Zealand"}, {"lat": -36.8773507, "lng": 174.7507814, "type": "Grocery Store", "name": "Commonsense Organics", "address": "284 Dominion Rd, Mount Eden, Auckland 1024, New Zealand"}, {"lat": -36.9858269, "lng": 174.8730682, "type": "Mail Order", "name": "Craft Beer Online", "address": "18 Lambie Dr, Papatoetoe, Auckland 2104, New Zealand"}, {"lat": -41.2889978, "lng": 174.7759575, "type": "Tavern", "name": "Wine & Arts Lounge", "address": "86/96 Victoria St, Wellington, 6011, New Zealand"}, {"lat": -36.7900096, "lng": 174.772678, "type": "Bottle Store", "name": "Takapuna Liquor Spot", "address": "453 Lake Rd, Takapuna, Auckland 0622, New Zealand"}, {"lat": -36.8445905, "lng": 174.7657859, "type": "Grocery Store", "name": "Dfs - Duty Free Retail Store", "address": "22 Customs St W, Auckland, 1010, New Zealand"}, {"lat": -37.064268, "lng": 174.9411007, "type": "Supermarket", "name": "New World Papakura", "address": "29-31 East St, Papakura, 2110, New Zealand"}, {"lat": -36.3522125, "lng": 174.7170836, "type": "Tavern", "name": "The Matakana Village Pub", "address": "11 Matakana Valley Rd, Matakana 0985, New Zealand"}, {"lat": -36.3974443, "lng": 174.6646036, "type": "Bottle Store", "name": "", "address": "Queen St, Warkworth 0910, New Zealand"}, {"lat": -36.8079605, "lng": 174.7903016, "type": "Bottle Store", "name": "Thirsty Liquor Williamson", "address": "130 Lake Rd, Belmont, Auckland 0622, New Zealand"}, {"lat": -37.0607471, "lng": 174.6643728, "type": "Wine Maker", "name": "Awhitu Wines", "address": "31 Greenock Dr, Awhitu 2684, New Zealand"}, {"lat": -36.823164, "lng": 175.132358, "type": "Wine Maker", "name": "Passage Rock Wines", "address": "438 Orapiu Rd, Te Matuku bay, Auckland 1971, New Zealand"}, {"lat": -36.8736775, "lng": 174.5993657, "type": "Wine Maker", "name": "St Jerome Wines", "address": "219 Metcalfe Rd, Ranui, Auckland 0612, New Zealand"}, {"lat": -36.71362999999999, "lng": 174.7486665, "type": "Brewer", "name": "Deep Creek Brews & Eats", "address": "111 Clyde Rd, Browns Bay, Auckland 0630, New Zealand"}, {"lat": -36.8302601, "lng": 175.0783, "type": "Wine Maker", "name": "Destiny Bay Wines", "address": "379B Gordons Rd, Waiheke Island, Auckland 1971, New Zealand"}, {"lat": -36.8295102, "lng": 174.7961934, "type": "Supermarket", "name": "Devonport New World", "address": "35 Bartley Terrace, Devonport, 0624, New Zealand"}, {"lat": -36.8476948, "lng": 174.7455201, "type": "Mail Order", "name": "Dn Fine Wines", "address": "84 College Hill, Auckland 1011, New Zealand"}, {"lat": -36.6188173, "lng": 174.67688, "type": "Mail Order", "name": "Batch 10", "address": "Silverdale, New Zealand"}, {"lat": -36.7939443, "lng": 174.7461947, "type": "Bottle Store", "name": "Black Bull Liquor", "address": "54 Northcote Rd, Northcote, Auckland 0627, New Zealand"}, {"lat": -36.967309, "lng": 174.90569, "type": "Bottle Store", "name": "Chapel Road Liquor", "address": "2/134 Chapel Rd, Flat Bush, Chapel Downs 2019, New Zealand"}, {"lat": -36.8799473, "lng": 174.8510112, "type": "Bottle Store", "name": "St Johns Liquor Spot", "address": "113-117 Felton Mathew Ave, St Johns, Auckland 1072, New Zealand"}, {"lat": -36.85100389999999, "lng": 174.8577243, "type": "Grocery Store", "name": "Eden Foods St Heliers", "address": "31 St Heliers Bay Rd, St Heliers, Auckland 1071, New Zealand"}, {"lat": -36.85805819999999, "lng": 174.760139, "type": "Bottle Store", "name": "Kiwi Liquor", "address": "178 Karangahape Rd, Auckland, 1010, New Zealand"}, {"lat": -36.9256946, "lng": 174.7995909, "type": "Mail Order", "name": "Epic Brewing Company", "address": "230B Neilson St, Onehunga, Auckland 1061, New Zealand"}, {"lat": -36.7327337, "lng": 174.7091221, "type": "Restaurant", "name": "Thirsty Liquor Mercari Albany", "address": "4/7 Mercari Way, Albany, Auckland 0632, New Zealand"}, {"lat": -36.891038, "lng": 174.833823, "type": "Grocery Store", "name": "Farro Fresh Food", "address": "80 Lunn Ave, Mount Wellington, Auckland 1072, New Zealand"}, {"lat": -36.7507105, "lng": 174.7280055, "type": "Supermarket", "name": "Farro Fresh Mairangi Bay", "address": "Cnr Constellation Drive And, Parkway Dr, Mairangi Bay, Auckland 0632, New Zealand"}, {"lat": -36.8765691, "lng": 174.8705084, "type": "Bottle Store", "name": "Fenchurch Liquor", "address": "43/45 Fenchurch St, Glen Innes, Auckland 1072, New Zealand"}, {"lat": -36.8968066, "lng": 174.610743, "type": "Wine Maker", "name": "Fino Valley Wines", "address": "283 Henderson Valley Rd, Henderson Valley, Auckland 0612, New Zealand"}, {"lat": -36.7902515, "lng": 174.7707009, "type": "Bottle Store", "name": "Forst Glass Wines & Spirits", "address": "22 Northcroft St, Takapuna, Auckland 0622, New Zealand"}, {"lat": -36.793308, "lng": 174.7472424, "type": "Auctioneer Endorsed", "name": "Fitz-Gerald Wine", "address": "46G Northcote Rd, Northcote, Auckland 0627, New Zealand"}, {"lat": -36.9650866, "lng": 174.9148097, "type": "Supermarket", "name": "Pak N Save Ormiston", "address": "240 Ormiston Rd, Flat Bush, Auckland 2016, New Zealand"}, {"lat": -40.9055566, "lng": 174.997441, "type": "Mail Order", "name": "Pete'S Liquor", "address": "3/140 Kapiti Rd, Paraparaumu 5032, New Zealand"}, {"lat": -36.6614459, "lng": 174.433662, "type": "Grocery Store", "name": "Parakai Four Square", "address": "137 Parkhurst Rd, Parakai 0830, New Zealand"}, {"lat": -36.8591542, "lng": 174.7468986, "type": "Bottle Store", "name": "Foxes Island Wines", "address": "15 Williamson Ave, Grey Lynn, Auckland 1021, New Zealand"}, {"lat": -36.8941683, "lng": 174.9326926, "type": "Bottle Store", "name": "Super Liquor Howick", "address": "Picton St and Uxbridge Rd, Cockle Bay, Manukau 2014, New Zealand"}, {"lat": -36.9578565, "lng": 174.8549264, "type": "Bottle Store", "name": "Thirsty Liquor", "address": "2/28 Bairds Rd, Otara, Auckland 2025, New Zealand"}, {"lat": -36.94047750000001, "lng": 174.8397415, "type": "Bottle Store", "name": "Brews Otahuhu", "address": "Great South Rd, Otahuhu, Auckland 1062, New Zealand"}, {"lat": -36.677179, "lng": 174.45111, "type": "Supermarket", "name": "Countdown Helensville", "address": "43 Commercial Rd, Helensville 0800, New Zealand"}, {"lat": -36.85850629999999, "lng": 174.7492002, "type": "Supermarket", "name": "Countdown Ponsonby", "address": "4 Williamson Ave, Ponsonby, Auckland 1021, New Zealand"}, {"lat": -36.7959925, "lng": 175.0459676, "type": "Supermarket", "name": "Coutndown Waiheke", "address": "Ostend Road, Waiheke Island, Auckland 1081, New Zealand"}, {"lat": -36.399688, "lng": 174.664308, "type": "Supermarket", "name": "Countdown Warkworth", "address": "20/26 Neville St, Warkworth 0910, New Zealand"}, {"lat": -36.5882956, "lng": 174.6951551, "type": "Supermarket", "name": "Countdown Orewa", "address": "Moenui Ave, Orewa, Auckland 0931, New Zealand"}, {"lat": -36.743299, "lng": 174.724384, "type": "Auctioneer Endorsed", "name": "Grays Auctions Ltd", "address": "38 Arrenway Dr, Rosedale, Auckland 0632, New Zealand"}, {"lat": -36.85734619999999, "lng": 174.7636708, "type": "Hotel", "name": "The Langham Auckland", "address": "83 Symonds St, Grafton, Auckland 1010, New Zealand"}, {"lat": -36.6153347, "lng": 174.7920322, "type": "Grocery Store", "name": "Gulf Harbour Four Square", "address": "160 Harbour Village Dr, Gulf Harbour, Whangaparaoa 0930, New Zealand"}, {"lat": -36.92735130000001, "lng": 174.8972714, "type": "Bottle Store", "name": "H Mart Liquor", "address": "166c Harris Rd, East Tamaki, Auckland 2013, New Zealand"}, {"lat": -36.752207, "lng": 174.715869, "type": "Bottle Store", "name": "Star Liquor", "address": "5/80 Paul Matthews Rd, Rosedale, Auckland 0632, New Zealand"}, {"lat": -36.8993124, "lng": 174.7564054, "type": "Bottle Store", "name": "Eden Cellar", "address": "114 Duke St, Mount Roskill, Auckland 1041, New Zealand"}, {"lat": -36.977106, "lng": 174.897735, "type": "Bottle Store", "name": "Liquor Legends Papatoetoe", "address": "186A Te Irirangi Dr, Flat Bush, Auckland 2023, New Zealand"}, {"lat": -36.9068076, "lng": 174.8049089, "type": "Bottle Store", "name": "Rockfield Road Liquor", "address": "79 Rockfield Rd, Auckland 1061, New Zealand"}, {"lat": -36.8552569, "lng": 174.7306739, "type": "Mail Order", "name": "Hancocks Wine, Spirit And Beer Merchants", "address": "318 Richmond Rd, Grey Lynn, Auckland 1021, New Zealand"}, {"lat": -36.7678255, "lng": 174.7466606, "type": "Bottle Store", "name": "Forrest Hill Liquor Centre", "address": "18 Raines Ave, Forrest Hill, Auckland 0620, New Zealand"}, {"lat": -36.8487698, "lng": 174.7661759, "type": "Bottle Store", "name": "Havana House", "address": "59/59 High St, Auckland, 1010, New Zealand"}, {"lat": -36.8093077, "lng": 175.0616977, "type": "Wine Maker", "name": "Hay Paddock Wines Cellar Door At Rangihoua", "address": "1 Gordons Rd, Waiheke Island, Auckland 1971, New Zealand"}, {"lat": -36.9305009, "lng": 174.7378228, "type": "Bottle Store", "name": "Hillsborough Wines And Spirits", "address": "435 Hillsborough Rd, Hillsborough, Auckland 1049, New Zealand"}, {"lat": -36.9227811, "lng": 174.7851972, "type": "Mail Order", "name": "Hi I.Q. Liquor Merchants", "address": "Onehunga, Auckland 1061, New Zealand"}, {"lat": -36.9338828, "lng": 174.9114914, "type": "Supermarket", "name": "New World Botany", "address": "588 Chapel Rd, East Tamaki, Tamaki 2103, New Zealand"}, {"lat": -36.8966231, "lng": 174.8322623, "type": "Bottle Store", "name": "Highway Liquor Centre ", "address": "1/2 Harris Rd, Ellerslie, Auckland 1051, New Zealand"}, {"lat": -36.8482731, "lng": 174.7674607, "type": "Bottle Store", "name": "Sam Snead'S House Of Whiskey", "address": "38 Courthouse Ln, Auckland, 1010, New Zealand"}, {"lat": -36.9091567, "lng": 174.9174356, "type": "Chartered Club", "name": "Howick Club", "address": "107 Botany Rd, Botany Downs, Auckland 2010, New Zealand"}, {"lat": -36.9017762, "lng": 174.9272271, "type": "Bottle Store", "name": "Liquorland Howick", "address": "125 Elliot St, Howick, Auckland 2014, New Zealand"}, {"lat": -36.848071, "lng": 174.767223, "type": "Grocery Store", "name": "Courthouse Lane Grocer", "address": "36 Courthouse Ln, Auckland, Auckland CBD 1010, New Zealand"}, {"lat": -37.082448, "lng": 175.072573, "type": "Bottle Store", "name": "Hunua Liquor Store", "address": "2330 Hunua Rd, Hunua, Auckland 2583, New Zealand"}, {"lat": -36.7281601, "lng": 174.7105039, "type": "Supermarket", "name": "New World Albany", "address": "219 Don Mckinnon Dr, Albany, Auckland 0632, New Zealand"}, {"lat": -36.913866, "lng": 174.754188, "type": "Bottle Store", "name": "Three Kings Liquor Centre", "address": "61 Hayr Rd, Three Kings, Auckland 1042, New Zealand"}, {"lat": -36.293696, "lng": 174.523813, "type": "Supermarket", "name": "Four Square Wellsford", "address": "201 Rodney St, Wellsford 0900, New Zealand"}, {"lat": -36.7711972, "lng": 174.7373637, "type": "Bottle Store", "name": "Harbour City Liquor", "address": "75 View Rd, Glenfield, Auckland 0627, New Zealand"}, {"lat": -36.8492945, "lng": 174.8319746, "type": "Wine Maker", "name": "Jk14 Wines", "address": "Marau Cres, Mission Bay, Auckland 1071, New Zealand"}, {"lat": -36.8486626, "lng": 174.7513565, "type": "Supermarket", "name": "New World Victoria Park", "address": "2 College Hill, Freemans Bay, Auckland 1011, New Zealand"}, {"lat": -36.9670011, "lng": 174.8624278, "type": "Bottle Store", "name": "Bottle-O- Papatoetoe", "address": "68 east Tamaki Road Papatoetoe, Papatoetoe, Auckland 2025, New Zealand"}, {"lat": -36.7327337, "lng": 174.7091221, "type": "Bottle Store", "name": "Thirsty Liquor Mercari Albany", "address": "4/7 Mercari Way, Albany, Auckland 0632, New Zealand"}, {"lat": -36.8784499, "lng": 174.856363, "type": "Bottle Store", "name": "Pacific Liquor Gi", "address": "139 Line Rd, Glen Innes, Auckland 1072, New Zealand"}, {"lat": -36.8407859, "lng": 174.7574759, "type": "Tavern", "name": "Jack Tar", "address": "North Wharf, Wynyard Quarter Jellicoe St, Auckland, 1010, New Zealand"}, {"lat": -36.9006231, "lng": 174.9048302, "type": "Bottle Store", "name": "Super Liquor Highland Park", "address": "13 Aviemore Dr, Highland Park, Auckland 2010, New Zealand"}, {"lat": -36.8829116, "lng": 174.7855846, "type": "Bottle Store", "name": "Gs Cellar", "address": "182 Great South Rd, Epsom, Auckland 1051, New Zealand"}, {"lat": -36.9917452, "lng": 174.881919, "type": "Grocery Store", "name": "Japan Mart", "address": "Shop 191 Westfield Maukau, Manukau, Auckland 2104, New Zealand"}, {"lat": -37.0317324, "lng": 174.868318, "type": "Bottle Store", "name": "Super Liquor Clendon", "address": "459-469 Roscommon Rd, Clendon Park, Auckland 2103, New Zealand"}, {"lat": -37.0611653, "lng": 175.0653975, "type": "Wine Maker", "name": "John Hill Estate", "address": "Entrance White Rd, Cnr John Hill & White Roads, Hunua 2583, New Zealand"}, {"lat": -36.360092, "lng": 174.736068, "type": "Wine Maker", "name": "Hyperion Wines", "address": "188 Tongue Farm Rd, Laly Haddon Place, Matakana 0986, New Zealand"}, {"lat": -36.3762402, "lng": 174.7043658, "type": "Wine Maker", "name": "Plume", "address": "49A Sharp Rd, Matakana, Auckland 0982, New Zealand"}, {"lat": -36.761539, "lng": 174.724764, "type": "Bottle Store", "name": "Target Road Liquor", "address": "8B Target Rd, Totara Vale, Auckland 0629, New Zealand"}, {"lat": -36.618095, "lng": 174.676902, "type": "Bottle Store", "name": "Liquor Centre Silverdale", "address": "11 Silverdale St, Stanmore Bay, Silverdale 0932, New Zealand"}, {"lat": -36.8462012, "lng": 174.7337903, "type": "Bottle Store", "name": "Liquorland Boutique Herne Bay", "address": "244-246 Jervois Rd, Herne Bay, Auckland 1011, New Zealand"}, {"lat": -36.9426171, "lng": 174.8450562, "type": "Bottle Store", "name": "Thirsty Liquor Super Store Otahuhu", "address": "28 Avenue Rd, Otahuhu, Auckland 1062, New Zealand"}, {"lat": -36.9794057, "lng": 174.8539464, "type": "Restaurant", "name": "Sky Liquor", "address": "74 St George St, Papatoetoe, Auckland 2025, New Zealand"}, {"lat": -36.7262533, "lng": 174.7486859, "type": "Mail Order", "name": "Karven Distilling Company", "address": "2-8 Montgomery Ave, Rothesay Bay, Auckland 0630, New Zealand"}, {"lat": -36.5447089, "lng": 174.7073971, "type": "Restaurant", "name": "Sugarloaf Waiwera Beach Bar & Restaurant", "address": "38-44 Waiwera Rd, RODNEY, Waiwera 0950, New Zealand"}, {"lat": -36.86334, "lng": 174.8096341, "type": "Bottle Store", "name": "Kemp Wine Merchants & Great Little Vineyards", "address": "228 Orakei Rd, Remuera, Auckland 1050, New Zealand"}, {"lat": -37.100491, "lng": 174.877375, "type": "Grocery Store", "name": "Paddock To Pantry", "address": "Corner of Linwood and Blackbridge Roads, Karaka, Auckland 2580, New Zealand"}, {"lat": -36.9706224, "lng": 174.7854405, "type": "Bottle Store", "name": "Airport Liquor", "address": "149/G Kirkbride Rd, Mangere, Auckland 2022, New Zealand"}, {"lat": -36.9928008, "lng": 174.8858228, "type": "Bottle Store", "name": "Manukau Super Liquor", "address": "726 Great South Rd, Manukau, Auckland 2104, New Zealand"}, {"lat": -37.248672, "lng": 174.7300803, "type": "Bottle Store", "name": "Super Liquor Waiuku", "address": "5b Queen St, Waiuku 2123, New Zealand"}, {"lat": -36.782031, "lng": 174.720907, "type": "Bottle Store", "name": "Kudu Imports Ltd", "address": "Glenfield, Auckland, New Zealand"}, {"lat": -36.908376, "lng": 174.837388, "type": "Bottle Store", "name": "Super Liquor Mt Wellington", "address": "14/295 Penrose Rd, Mount Wellington, Auckland 1060, New Zealand"}, {"lat": -36.898547, "lng": 174.907682, "type": "Bottle Store", "name": "Highland Park Liquor Centre", "address": "12/505 Pakuranga Rd, Highland Park, Auckland 2010, New Zealand"}, {"lat": -36.35189800000001, "lng": 174.716877, "type": "Grocery Store", "name": "Matakana Four Square", "address": "Place, 21 Matakana Valley Rd, Laly Haddon, Matakana 0985, New Zealand"}, {"lat": -36.9627594, "lng": 174.8143919, "type": "Bottle Store", "name": "Thirsty Liquor Wickman Way", "address": "18 Wickman Way, Mangere East, Auckland 2024, New Zealand"}, {"lat": -36.6780135, "lng": 174.4446815, "type": "Mail Order", "name": "The Liberty Brewing Tap Room", "address": "69 Mill Rd, Helensville 0800, New Zealand"}, {"lat": -36.8504632, "lng": 174.7531425, "type": "Mail Order", "name": "Lion Family And Friends", "address": "27 Napier St, Freemans Bay, Auckland 1023, New Zealand"}, {"lat": -36.7203447, "lng": 174.7103506, "type": "Bottle Store", "name": "Liquor King", "address": "c/252 Oteha Valley Rd, Albany, 0632, New Zealand"}, {"lat": -36.6327275, "lng": 174.7376329, "type": "Bottle Store", "name": "Liquor King Whangaparaoa", "address": "625 Whangaparaoa Rd, Stanmore Bay, Whangaparaoa 0932, New Zealand"}, {"lat": -36.9628648, "lng": 174.8957176, "type": "Brewer", "name": "The Pride (Staff Sales)", "address": "55 Ormiston Rd, East Tamaki, Auckland 2016, New Zealand"}, {"lat": -36.659631, "lng": 174.431697, "type": "Bottle Store", "name": "Parakai Liquor Spot", "address": "167 Parkhurst Rd, Parakai 0830, New Zealand"}, {"lat": -36.8956409, "lng": 174.8872523, "type": "Bottle Store", "name": "Farm Cove Liquor Centre", "address": "190 Fisher Parade, Pakuranga, Auckland 2012, New Zealand"}, {"lat": -36.852729, "lng": 174.7862675, "type": "Bottle Store", "name": "Gladstone Wines", "address": "7/64 Gladstone Rd, Parnell, Auckland 1052, New Zealand"}, {"lat": -36.8673613, "lng": 174.7756918, "type": "Bottle Store", "name": "Tokyo Liquor", "address": "435 Khyber Pass Rd, Newmarket, Auckland 1023, New Zealand"}, {"lat": -36.8471866, "lng": 174.7646171, "type": "Bottle Store", "name": "Tokyo Liquor", "address": "26-28 Wyndham St, Auckland, 1010, New Zealand"}, {"lat": -36.88482800000001, "lng": 174.714381, "type": "Bottle Store", "name": "Bottle O Mt Albert", "address": "935 New North Rd, Mount Albert, Auckland 1025, New Zealand"}, {"lat": -36.85548319999999, "lng": 174.7627246, "type": "Bottle Store", "name": "Liquor.Com", "address": "456 Queen St, Auckland, 1010, New Zealand"}, {"lat": -36.3109341, "lng": 175.4939391, "type": "Grocery Store", "name": "Mulberry Grove Store", "address": "1 Mulberry Grove Rd, Great Barrier Island 0991, New Zealand"}, {"lat": -36.8484597, "lng": 174.7633315, "type": "Mail Order", "name": "Loveblock Vintners", "address": "Auckland, 1010, New Zealand"}, {"lat": -36.2954758, "lng": 174.52333, "type": "Bottle Store", "name": "Wellsford Liquor Spot", "address": "133 Rodney St, Wellsford 0900, New Zealand"}, {"lat": -36.7464807, "lng": 174.7344983, "type": "Complimentary", "name": "My Goodness Hampers", "address": "20 Constellation Dr, Rosedale, Auckland 0632, New Zealand"}, {"lat": -36.880363, "lng": 174.726191, "type": "Grocery Store", "name": "Fresh Collective Alberton Ave", "address": "1 Alberton Ave, Mount Albert, Auckland 1025, New Zealand"}, {"lat": -36.910914, "lng": 174.651446, "type": "Grocery Store", "name": "Alberton Fine Foods Four Square", "address": "27 Glenmall Pl, Glen Eden, Auckland 0602, New Zealand"}, {"lat": -37.0095418, "lng": 174.890423, "type": "Bottle Store", "name": "Saul Liquor Store Bargain", "address": "17A Great South Rd, Manurewa, Auckland 2102, New Zealand"}, {"lat": -36.8159375, "lng": 174.7458, "type": "Bottle Store", "name": "Point Wines", "address": "141 Queen St, Northcote Point, Auckland 0627, New Zealand"}, {"lat": -36.8917267, "lng": 174.8321064, "type": "Bottle Store", "name": "Macvine International Ltd", "address": "174C Marua Rd, Mount Wellington, Auckland 1051, New Zealand"}, {"lat": -36.786435, "lng": 175.154308, "type": "Bottle Store", "name": "Man O War Vineyards", "address": "725 Man O'war Bay Rd, Waiheke Island, Auckland 1971, New Zealand"}, {"lat": -36.9878442, "lng": 174.880734, "type": "Supermarket", "name": "Manukau Pak N Save", "address": "6 Cavendish Dr, Manukau, Auckland 2104, New Zealand"}, {"lat": -36.989153, "lng": 174.8709747, "type": "Mail Order", "name": "Manukau Liquor Merchants", "address": "77 Cavendish Dr, Manukau, Auckland 2104, New Zealand"}, {"lat": -36.9065418, "lng": 174.7925945, "type": "Bottle Store", "name": "Grapes", "address": "74 Rawhiti Rd, One Tree Hill, Auckland 1061, New Zealand"}, {"lat": -36.8565488, "lng": 174.7398414, "type": "Mail Order", "name": "", "address": "Richmond Rd, Auckland 1021, New Zealand"}, {"lat": -36.4083623, "lng": 174.6591418, "type": "Bottle Store", "name": "The Bottle-O, The Grange", "address": "67 Auckland Rd, Warkworth 0910, New Zealand"}, {"lat": -36.886332, "lng": 174.681461, "type": "Mail Order", "name": "Mead In New Zealand Limited", "address": "22K Mead St, Avondale, Auckland 1026, New Zealand"},